{
  "objects": [
    {
      "id": "parada_001",
      "nombre": "",
      "prefabName": "Pbus_stop_sign_-_low_poly",
      "longitude": -15.43308836,
      "latitude": 28.12811194,
      "height": 22.0,
      "scale": {
        "x": 0.5,
        "y": 0.5,
        "z": 0.5
      },
      "tag": "BusStop",
      "localOffset": {
        "x":-2,
        "y": 35.1,
        "z": 0.0
      }
    },
    {
      "id": "parada_002",
      "nombre": "Parque Santa Catalina",
      "prefabName": "Pbus_stop_sign_-_low_poly",
      "longitude": -15.4308279,
      "latitude": 28.1407762,
      "height": 13.0,
      "scale": {
        "x": 0.5,
        "y": 0.5,
        "z": 0.5
      },
      "tag": "BusStop",
      "localOffset": {
        "x":-2,
        "y": 35.1,
        "z": 0.0
      }
    },
    {
      "id": "parada_003",
      "nombre": "Plaza Del Pilar",
      "prefabName": "Pbus_stop_sign_-_low_poly",
      "longitude": -15.4455075,
      "latitude": 28.1303462,
      "height": 16.0,
      "scale": {
        "x": 0.5,
        "y": 0.5,
        "z": 0.5
      },
      "tag": "BusStop",
      "localOffset": {
        "x":-2,
        "y": 35.1,
        "z": 0.0
      }
    },
    {
      "id": "parada_004",
      "nombre": "León y Castillo (C.N. Metropole)",
      "prefabName": "Pbus_stop_sign_-_low_poly",
      "longitude": -15.4267359,
      "latitude": 28.1221421,
      "height": 14.0,
      "scale": {
        "x": 0.5,
        "y": 0.5,
        "z": 0.5
      },
      "tag": "BusStop",
      "localOffset": {
        "x":-2,
        "y": 35.1,
        "z": 0.0
      }
    },
    {
      "id": "parada_005",
      "nombre": "Pérez Muñoz, 34",
      "prefabName": "Pbus_stop_sign_-_low_poly",
      "longitude": -15.4270109,
      "latitude": 28.1499505,
      "height": 17.0,
      "scale": {
        "x": 0.5,
        "y": 0.5,
        "z": 0.5
      },
      "tag": "BusStop",
      "localOffset": {
        "x":-2,
        "y": 35.1,
        "z": 0.0
      }
    },
    {
      "id": "parada_006",
      "nombre": "Parque Santa Catalina",
      "prefabName": "Pbus_stop_sign_-_low_poly",
      "longitude": -15.4307681,
      "latitude": 28.1400072,
      "height": 13.0,
      "scale": {
        "x": 0.5,
        "y": 0.5,
        "z": 0.5
      },
      "tag": "BusStop",
      "localOffset": {
        "x":-2,
        "y": 35.1,
        "z": 0.0
      }
    },
    {
      "id": "parada_007",
      "nombre": "Plaza Del Pilar",
      "prefabName": "Pbus_stop_sign_-_low_poly",
      "longitude": -15.4442491,
      "latitude": 28.1287065,
      "height": 22.0,
      "scale": {
        "x": 0.5,
        "y": 0.5,
        "z": 0.5
      },
      "tag": "BusStop",
      "localOffset": {
        "x":-2,
        "y": 35.1,
        "z": 0.0
      }
    },
    {
      "id": "parada_008",
      "nombre": "Castillejos, 23",
      "prefabName": "Pbus_stop_sign_-_low_poly",
      "longitude": -15.4427663,
      "latitude": 28.1298725,
      "height": 23.0,
      "scale": {
        "x": 0.5,
        "y": 0.5,
        "z": 0.5
      },
      "tag": "BusStop",
      "localOffset": {
        "x":-2,
        "y": 35.1,
        "z": 0.0
      }
    },
    {
      "id": "parada_009",
      "nombre": "Simancas, 70",
      "prefabName": "Pbus_stop_sign_-_low_poly",
      "longitude": -15.4440535,
      "latitude": 28.1297851,
      "height": 22.0,
      "scale": {
        "x": 0.5,
        "y": 0.5,
        "z": 0.5
      },
      "tag": "BusStop",
      "localOffset": {
        "x":-2,
        "y": 35.1,
        "z": 0.0
      }
    },
    {
      "id": "parada_010",
      "nombre": "Fernando Guanarteme (plta. Farray)",
      "prefabName": "Pbus_stop_sign_-_low_poly",
      "longitude": -15.4355833,
      "latitude": 28.1369217,
      "height": 20.0,
      "scale": {
        "x": 0.5,
        "y": 0.5,
        "z": 0.5
      },
      "tag": "BusStop",
      "localOffset": {
        "x":-2,
        "y": 35.1,
        "z": 0.0
      }
    },
    {
      "id": "parada_011",
      "nombre": "Tomás Miller (Playa de Las Canteras)",
      "prefabName": "Pbus_stop_sign_-_low_poly",
      "longitude": -15.4337094,
      "latitude": 28.1415271,
      "height": 23.0,
      "scale": {
        "x": 0.5,
        "y": 0.5,
        "z": 0.5
      },
      "tag": "BusStop",
      "localOffset": {
        "x":-2,
        "y": 35.1,
        "z": 0.0
      }
    },
    {
      "id": "parada_012",
      "nombre": "Ciencias Básicas / Informática",
      "prefabName": "Pbus_stop_sign_-_low_poly",
      "longitude": -15.451904,
      "latitude": 28.0727648,
      "height": 316.0,
      "scale": {
        "x": 0.5,
        "y": 0.5,
        "z": 0.5
      },
      "tag": "BusStop",
      "localOffset": {
        "x":-2,
        "y": 35.1,
        "z": 0.0
      }
    },
    {
      "id": "parada_013",
      "nombre": "Ciencias Básicas",
      "prefabName": "Pbus_stop_sign_-_low_poly",
      "longitude": -15.4527971,
      "latitude": 28.0734302,
      "height": 311.0,
      "scale": {
        "x": 0.5,
        "y": 0.5,
        "z": 0.5
      },
      "tag": "BusStop",
      "localOffset": {
        "x":-2,
        "y": 35.1,
        "z": 0.0
      }
    },
    {
      "id": "parada_014",
      "nombre": "Ciencias Básicas / Teología",
      "prefabName": "Pbus_stop_sign_-_low_poly",
      "longitude": -15.4518063,
      "latitude": 28.0725975,
      "height": 317.0,
      "scale": {
        "x": 0.5,
        "y": 0.5,
        "z": 0.5
      },
      "tag": "BusStop",
      "localOffset": {
        "x":-2,
        "y": 35.1,
        "z": 0.0
      }
    },
    {
      "id": "parada_015",
      "nombre": "",
      "prefabName": "Pbus_stop_sign_-_low_poly",
      "longitude": -15.4444068,
      "latitude": 28.0759834,
      "height": 266.0,
      "scale": {
        "x": 0.5,
        "y": 0.5,
        "z": 0.5
      },
      "tag": "BusStop",
      "localOffset": {
        "x":-2,
        "y": 35.1,
        "z": 0.0
      }
    },
    {
      "id": "parada_016",
      "nombre": "",
      "prefabName": "Pbus_stop_sign_-_low_poly",
      "longitude": -15.4462846,
      "latitude": 28.0749165,
      "height": 277.0,
      "scale": {
        "x": 0.5,
        "y": 0.5,
        "z": 0.5
      },
      "tag": "BusStop",
      "localOffset": {
        "x":-2,
        "y": 35.1,
        "z": 0.0
      }
    },
    {
      "id": "parada_017",
      "nombre": "C.M. Cabildo",
      "prefabName": "Pbus_stop_sign_-_low_poly",
      "longitude": -15.4340985,
      "latitude": 28.0873777,
      "height": 178.0,
      "scale": {
        "x": 0.5,
        "y": 0.5,
        "z": 0.5
      },
      "tag": "BusStop",
      "localOffset": {
        "x":-2,
        "y": 35.1,
        "z": 0.0
      }
    },
    {
      "id": "parada_018",
      "nombre": "Faro, 11",
      "prefabName": "Pbus_stop_sign_-_low_poly",
      "longitude": -15.4303475,
      "latitude": 28.1489361,
      "height": 17.0,
      "scale": {
        "x": 0.5,
        "y": 0.5,
        "z": 0.5
      },
      "tag": "BusStop",
      "localOffset": {
        "x":-2,
        "y": 35.1,
        "z": 0.0
      }
    },
    {
      "id": "parada_019",
      "nombre": "Ctra. Pico Viento (Asilo de Ancianos)",
      "prefabName": "Pbus_stop_sign_-_low_poly",
      "longitude": -15.4469411,
      "latitude": 28.0742367,
      "height": 281.0,
      "scale": {
        "x": 0.5,
        "y": 0.5,
        "z": 0.5
      },
      "tag": "BusStop",
      "localOffset": {
        "x":-2,
        "y": 35.1,
        "z": 0.0
      }
    },
    {
      "id": "parada_020",
      "nombre": "Rafael Cabrera (San Telmo)",
      "prefabName": "Pbus_stop_sign_-_low_poly",
      "longitude": -15.4159501,
      "latitude": 28.1087484,
      "height": 13.0,
      "scale": {
        "x": 0.5,
        "y": 0.5,
        "z": 0.5
      },
      "tag": "BusStop",
      "localOffset": {
        "x":-2,
        "y": 35.1,
        "z": 0.0
      }
    },
    {
      "id": "parada_021",
      "nombre": "Rafael Cabrera (San Telmo) Cod. 3",
      "prefabName": "Pbus_stop_sign_-_low_poly",
      "longitude": -15.4160864,
      "latitude": 28.1090261,
      "height": 13.0,
      "scale": {
        "x": 0.5,
        "y": 0.5,
        "z": 0.5
      },
      "tag": "BusStop",
      "localOffset": {
        "x":-2,
        "y": 35.1,
        "z": 0.0
      }
    },
    {
      "id": "parada_022",
      "nombre": "Manuel Becerra (Puerto)",
      "prefabName": "Pbus_stop_sign_-_low_poly",
      "longitude": -15.4219407,
      "latitude": 28.1501996,
      "height": 12.0,
      "scale": {
        "x": 0.5,
        "y": 0.5,
        "z": 0.5
      },
      "tag": "BusStop",
      "localOffset": {
        "x":-2,
        "y": 35.1,
        "z": 0.0
      }
    },
    {
      "id": "parada_023",
      "nombre": "José Luis Guerra de Armas (cruce de Las Coloradas)",
      "prefabName": "Pbus_stop_sign_-_low_poly",
      "longitude": -15.4296068,
      "latitude": 28.1550363,
      "height": 44.0,
      "scale": {
        "x": 0.5,
        "y": 0.5,
        "z": 0.5
      },
      "tag": "BusStop",
      "localOffset": {
        "x":-2,
        "y": 35.1,
        "z": 0.0
      }
    },
    {
      "id": "parada_024",
      "nombre": "Campus Universitario",
      "prefabName": "Pbus_stop_sign_-_low_poly",
      "longitude": -15.4499477,
      "latitude": 28.0797099,
      "height": 253.0,
      "scale": {
        "x": 0.5,
        "y": 0.5,
        "z": 0.5
      },
      "tag": "BusStop",
      "localOffset": {
        "x":-2,
        "y": 35.1,
        "z": 0.0
      }
    },
    {
      "id": "parada_025",
      "nombre": "Residencias (Campus Universitario)",
      "prefabName": "Pbus_stop_sign_-_low_poly",
      "longitude": -15.4525517,
      "latitude": 28.079564,
      "height": 266.0,
      "scale": {
        "x": 0.5,
        "y": 0.5,
        "z": 0.5
      },
      "tag": "BusStop",
      "localOffset": {
        "x":-2,
        "y": 35.1,
        "z": 0.0
      }
    },
    {
      "id": "parada_026",
      "nombre": "Plaza de la Constitución (Obelisco)",
      "prefabName": "Pbus_stop_sign_-_low_poly",
      "longitude": -15.4233524,
      "latitude": 28.1121832,
      "height": 26.0,
      "scale": {
        "x": 0.5,
        "y": 0.5,
        "z": 0.5
      },
      "tag": "BusStop",
      "localOffset": {
        "x":-2,
        "y": 35.1,
        "z": 0.0
      }
    },
    {
      "id": "parada_027",
      "nombre": "Plaza de la Constitución (Obelisco)",
      "prefabName": "Pbus_stop_sign_-_low_poly",
      "longitude": -15.4237963,
      "latitude": 28.1118929,
      "height": 22.0,
      "scale": {
        "x": 0.5,
        "y": 0.5,
        "z": 0.5
      },
      "tag": "BusStop",
      "localOffset": {
        "x":-2,
        "y": 35.1,
        "z": 0.0
      }
    },
    {
      "id": "parada_028",
      "nombre": "Alameda de Colón",
      "prefabName": "Pbus_stop_sign_-_low_poly",
      "longitude": -15.4171566,
      "latitude": 28.1030355,
      "height": 28.0,
      "scale": {
        "x": 0.5,
        "y": 0.5,
        "z": 0.5
      },
      "tag": "BusStop",
      "localOffset": {
        "x":-2,
        "y": 30.1,
        "z": 0.0
      }
    },
    {
      "id": "parada_029",
      "nombre": "",
      "prefabName": "Pbus_stop_sign_-_low_poly",
      "longitude": -15.4169101,
      "latitude": 28.1027137,
      "height": 28.0,
      "scale": {
        "x": 0.5,
        "y": 0.5,
        "z": 0.5
      },
      "tag": "BusStop",
      "localOffset": {
        "x":-2,
        "y": 29.1,
        "z": 0.0
      }
    },
    {
      "id": "parada_030",
      "nombre": "Tomas Morales, frente 69",
      "prefabName": "Pbus_stop_sign_-_low_poly",
      "longitude": -15.4251178,
      "latitude": 28.1149196,
      "height": 20.0,
      "scale": {
        "x": 0.5,
        "y": 0.5,
        "z": 0.5
      },
      "tag": "BusStop",
      "localOffset": {
        "x":-2,
        "y": 35.1,
        "z": 0.0
      }
    },
    {
      "id": "parada_031",
      "nombre": "Emilio Ley (Parque Doramas)",
      "prefabName": "Pbus_stop_sign_-_low_poly",
      "longitude": -15.430016,
      "latitude": 28.1212572,
      "height": 32.0,
      "scale": {
        "x": 0.5,
        "y": 0.5,
        "z": 0.5
      },
      "tag": "BusStop",
      "localOffset": {
        "x":-2,
        "y": 35.1,
        "z": 0.0
      }
    },
    {
      "id": "parada_032",
      "nombre": "Pío XII (Colegio Teresiano)",
      "prefabName": "Pbus_stop_sign_-_low_poly",
      "longitude": -15.4321736,
      "latitude": 28.1250117,
      "height": 23.0,
      "scale": {
        "x": 0.5,
        "y": 0.5,
        "z": 0.5
      },
      "tag": "BusStop",
      "localOffset": {
        "x":-2,
        "y": 35.1,
        "z": 0.0
      }
    },
    {
      "id": "parada_033",
      "nombre": "Ingeniero José Bosch y Sintes, 1",
      "prefabName": "Pbus_stop_sign_-_low_poly",
      "longitude": -15.4210393,
      "latitude": 28.1084572,
      "height": 26.0,
      "scale": {
        "x": 0.5,
        "y": 0.5,
        "z": 0.5
      },
      "tag": "BusStop",
      "localOffset": {
        "x":-2,
        "y": 35.1,
        "z": 0.0
      }
    },
    {
      "id": "parada_034",
      "nombre": "León y Castillo (Edificio José Antonio)",
      "prefabName": "Pbus_stop_sign_-_low_poly",
      "longitude": -15.4301,
      "latitude": 28.1325269,
      "height": 18.0,
      "scale": {
        "x": 0.5,
        "y": 0.5,
        "z": 0.5
      },
      "tag": "BusStop",
      "localOffset": {
        "x":-2,
        "y": 35.1,
        "z": 0.0
      }
    },
    {
      "id": "parada_035",
      "nombre": "Tomás Morales, 5",
      "prefabName": "Pbus_stop_sign_-_low_poly",
      "longitude": -15.4207383,
      "latitude": 28.1083097,
      "height": 25.0,
      "scale": {
        "x": 0.5,
        "y": 0.5,
        "z": 0.5
      },
      "tag": "BusStop",
      "localOffset": {
        "x":-2,
        "y": 35.1,
        "z": 0.0
      }
    },
    {
      "id": "parada_036",
      "nombre": "Pérez del Toro (pl. Dr. Juan Bosch Millares)",
      "prefabName": "Pbus_stop_sign_-_low_poly",
      "longitude": -15.4273588,
      "latitude": 28.1172681,
      "height": 28.0,
      "scale": {
        "x": 0.5,
        "y": 0.5,
        "z": 0.5
      },
      "tag": "BusStop",
      "localOffset": {
        "x":-2,
        "y": 35.1,
        "z": 0.0
      }
    },
    {
      "id": "parada_037",
      "nombre": "Deán Rodríguez Bolaños (pl. Alvarado y Saz)",
      "prefabName": "Pbus_stop_sign_-_low_poly",
      "longitude": -15.4370517,
      "latitude": 28.1115459,
      "height": 145.0,
      "scale": {
        "x": 0.5,
        "y": 0.5,
        "z": 0.5
      },
      "tag": "BusStop",
      "localOffset": {
        "x":-2,
        "y": 35.1,
        "z": 0.0
      }
    },
    {
      "id": "parada_038",
      "nombre": "Pintor Felo Monzón (C.C. Siete Palmas)",
      "prefabName": "Pbus_stop_sign_-_low_poly",
      "longitude": -15.455087,
      "latitude": 28.097734,
      "height": 221.0,
      "scale": {
        "x": 0.5,
        "y": 0.5,
        "z": 0.5
      },
      "tag": "BusStop",
      "localOffset": {
        "x":-2,
        "y": 35.1,
        "z": 0.0
      }
    },
    {
      "id": "parada_039",
      "nombre": "Cruce Hoya De La Plata",
      "prefabName": "Pbus_stop_sign_-_low_poly",
      "longitude": -15.4158003,
      "latitude": 28.0735712,
      "height": 14.0,
      "scale": {
        "x": 0.5,
        "y": 0.5,
        "z": 0.5
      },
      "tag": "BusStop",
      "localOffset": {
        "x":-2,
        "y": 35.1,
        "z": 0.0
      }
    },
    {
      "id": "parada_040",
      "nombre": "Hospital Insular (cercania)",
      "prefabName": "Pbus_stop_sign_-_low_poly",
      "longitude": -15.4165698,
      "latitude": 28.0813452,
      "height": 16.0,
      "scale": {
        "x": 0.5,
        "y": 0.5,
        "z": 0.5
      },
      "tag": "BusStop",
      "localOffset": {
        "x":-2,
        "y": 35.1,
        "z": 0.0
      }
    },
    {
      "id": "parada_041",
      "nombre": "San Cristobal",
      "prefabName": "Pbus_stop_sign_-_low_poly",
      "longitude": -15.4159137,
      "latitude": 28.0799382,
      "height": 15.0,
      "scale": {
        "x": 0.5,
        "y": 0.5,
        "z": 0.5
      },
      "tag": "BusStop",
      "localOffset": {
        "x":-2,
        "y": 35.1,
        "z": 0.0
      }
    },
    {
      "id": "parada_042",
      "nombre": "Agustín Millares Sall (edificio Mapfre)",
      "prefabName": "Pbus_stop_sign_-_low_poly",
      "longitude": -15.4280992,
      "latitude": 28.1478979,
      "height": 16.0,
      "scale": {
        "x": 0.5,
        "y": 0.5,
        "z": 0.5
      },
      "tag": "BusStop",
      "localOffset": {
        "x":-2,
        "y": 35.1,
        "z": 0.0
      }
    },
    {
      "id": "parada_043",
      "nombre": "Punto de parada",
      "prefabName": "Pbus_stop_sign_-_low_poly",
      "longitude": -15.4293575,
      "latitude": 28.1478932,
      "height": 17.0,
      "scale": {
        "x": 0.5,
        "y": 0.5,
        "z": 0.5
      },
      "tag": "BusStop",
      "localOffset": {
        "x":-2,
        "y": 35.1,
        "z": 0.0
      }
    },
    {
      "id": "parada_044",
      "nombre": "Juan Rejón, 67",
      "prefabName": "Pbus_stop_sign_-_low_poly",
      "longitude": -15.425865,
      "latitude": 28.1491915,
      "height": 17.0,
      "scale": {
        "x": 0.5,
        "y": 0.5,
        "z": 0.5
      },
      "tag": "BusStop",
      "localOffset": {
        "x":-2,
        "y": 35.1,
        "z": 0.0
      }
    },
    {
      "id": "parada_045",
      "nombre": "Woermann",
      "prefabName": "Pbus_stop_sign_-_low_poly",
      "longitude": -15.42931,
      "latitude": 28.1458265,
      "height": 11.0,
      "scale": {
        "x": 0.5,
        "y": 0.5,
        "z": 0.5
      },
      "tag": "BusStop",
      "localOffset": {
        "x":-2,
        "y": 35.1,
        "z": 0.0
      }
    },
    {
      "id": "parada_046",
      "nombre": "Luis Doreste Silva, 50",
      "prefabName": "Pbus_stop_sign_-_low_poly",
      "longitude": -15.4235148,
      "latitude": 28.1187123,
      "height": 14.0,
      "scale": {
        "x": 0.5,
        "y": 0.5,
        "z": 0.5
      },
      "tag": "BusStop",
      "localOffset": {
        "x":-2,
        "y": 35.1,
        "z": 0.0
      }
    },
    {
      "id": "parada_047",
      "nombre": "Ctra. de San Lorenzo, 188",
      "prefabName": "Pbus_stop_sign_-_low_poly",
      "longitude": -15.4781672,
      "latitude": 28.0815356,
      "height": 248.0,
      "scale": {
        "x": 0.5,
        "y": 0.5,
        "z": 0.5
      },
      "tag": "BusStop",
      "localOffset": {
        "x":-2,
        "y": 35.1,
        "z": 0.0
      }
    },
    {
      "id": "parada_048",
      "nombre": "Pº San Antonio (López Orduña)",
      "prefabName": "Pbus_stop_sign_-_low_poly",
      "longitude": -15.4273545,
      "latitude": 28.1121768,
      "height": 77.0,
      "scale": {
        "x": 0.5,
        "y": 0.5,
        "z": 0.5
      },
      "tag": "BusStop",
      "localOffset": {
        "x":-2,
        "y": 35.1,
        "z": 0.0
      }
    },
    {
      "id": "parada_049",
      "nombre": "",
      "prefabName": "Pbus_stop_sign_-_low_poly",
      "longitude": -15.4262217,
      "latitude": 28.1111829,
      "height": 70.0,
      "scale": {
        "x": 0.5,
        "y": 0.5,
        "z": 0.5
      },
      "tag": "BusStop",
      "localOffset": {
        "x":-2,
        "y": 35.1,
        "z": 0.0
      }
    },
    {
      "id": "parada_050",
      "nombre": "Emilio Ley (piscinas Julio Navarro)",
      "prefabName": "Pbus_stop_sign_-_low_poly",
      "longitude": -15.4299302,
      "latitude": 28.1214427,
      "height": 30.0,
      "scale": {
        "x": 0.5,
        "y": 0.5,
        "z": 0.5
      },
      "tag": "BusStop",
      "localOffset": {
        "x":-2,
        "y": 35.1,
        "z": 0.0
      }
    },
    {
      "id": "parada_051",
      "nombre": "Carretera de Mata (Plaza del Pino)",
      "prefabName": "Pbus_stop_sign_-_low_poly",
      "longitude": -15.4218855,
      "latitude": 28.107785,
      "height": 35.0,
      "scale": {
        "x": 0.5,
        "y": 0.5,
        "z": 0.5
      },
      "tag": "BusStop",
      "localOffset": {
        "x":-2,
        "y": 35.1,
        "z": 0.0
      }
    },
    {
      "id": "parada_052",
      "nombre": "Av. Escaleritas, 48",
      "prefabName": "Pbus_stop_sign_-_low_poly",
      "longitude": -15.436521,
      "latitude": 28.1217319,
      "height": 97.0,
      "scale": {
        "x": 0.5,
        "y": 0.5,
        "z": 0.5
      },
      "tag": "BusStop",
      "localOffset": {
        "x":-2,
        "y": 35.1,
        "z": 0.0
      }
    },
    {
      "id": "parada_053",
      "nombre": "Av. Escaleritas (Cáritas)",
      "prefabName": "Pbus_stop_sign_-_low_poly",
      "longitude": -15.4364964,
      "latitude": 28.1207647,
      "height": 99.0,
      "scale": {
        "x": 0.5,
        "y": 0.5,
        "z": 0.5
      },
      "tag": "BusStop",
      "localOffset": {
        "x":-2,
        "y": 35.1,
        "z": 0.0
      }
    },
    {
      "id": "parada_054",
      "nombre": "Obispo Romo, frente 27",
      "prefabName": "Pbus_stop_sign_-_low_poly",
      "longitude": -15.4358194,
      "latitude": 28.1154766,
      "height": 121.0,
      "scale": {
        "x": 0.5,
        "y": 0.5,
        "z": 0.5
      },
      "tag": "BusStop",
      "localOffset": {
        "x":-2,
        "y": 35.1,
        "z": 0.0
      }
    },
    {
      "id": "parada_055",
      "nombre": "Lady Harimaguada",
      "prefabName": "Pbus_stop_sign_-_low_poly",
      "longitude": -15.4144541,
      "latitude": 28.0894679,
      "height": 9.0,
      "scale": {
        "x": 0.5,
        "y": 0.5,
        "z": 0.5
      },
      "tag": "BusStop",
      "localOffset": {
        "x":-2,
        "y": 35.1,
        "z": 0.0
      }
    },
    {
      "id": "parada_056",
      "nombre": "Don Pedro Infinito, 24",
      "prefabName": "Pbus_stop_sign_-_low_poly",
      "longitude": -15.4308696,
      "latitude": 28.1104863,
      "height": 119.0,
      "scale": {
        "x": 0.5,
        "y": 0.5,
        "z": 0.5
      },
      "tag": "BusStop",
      "localOffset": {
        "x":-2,
        "y": 35.1,
        "z": 0.0
      }
    },
    {
      "id": "parada_057",
      "nombre": "Pintor Juan Guillermo (C.C. La Minilla)",
      "prefabName": "Pbus_stop_sign_-_low_poly",
      "longitude": -15.4384845,
      "latitude": 28.1257825,
      "height": 70.0,
      "scale": {
        "x": 0.5,
        "y": 0.5,
        "z": 0.5
      },
      "tag": "BusStop",
      "localOffset": {
        "x":-2,
        "y": 35.1,
        "z": 0.0
      }
    },
    {
      "id": "parada_058",
      "nombre": "",
      "prefabName": "Pbus_stop_sign_-_low_poly",
      "longitude": -15.4176815,
      "latitude": 28.1031779,
      "height": 31.0,
      "scale": {
        "x": 0.5,
        "y": 0.5,
        "z": 0.5
      },
      "tag": "BusStop",
      "localOffset": {
        "x":-2,
        "y": 35.1,
        "z": 0.0
      }
    },
    {
      "id": "parada_059",
      "nombre": "Av. Escaleritas (urb. Parque Central)",
      "prefabName": "Pbus_stop_sign_-_low_poly",
      "longitude": -15.4463625,
      "latitude": 28.101588,
      "height": 195.0,
      "scale": {
        "x": 0.5,
        "y": 0.5,
        "z": 0.5
      },
      "tag": "BusStop",
      "localOffset": {
        "x":-2,
        "y": 35.1,
        "z": 0.0
      }
    },
    {
      "id": "parada_060",
      "nombre": "Av. Escaleritas, 169",
      "prefabName": "Pbus_stop_sign_-_low_poly",
      "longitude": -15.4482126,
      "latitude": 28.0995991,
      "height": 203.0,
      "scale": {
        "x": 0.5,
        "y": 0.5,
        "z": 0.5
      },
      "tag": "BusStop",
      "localOffset": {
        "x":-2,
        "y": 35.1,
        "z": 0.0
      }
    },
    {
      "id": "parada_061",
      "nombre": "Av. Escaleritas (C.C. La Ballena)",
      "prefabName": "Pbus_stop_sign_-_low_poly",
      "longitude": -15.442778,
      "latitude": 28.102843,
      "height": 161.0,
      "scale": {
        "x": 0.5,
        "y": 0.5,
        "z": 0.5
      },
      "tag": "BusStop",
      "localOffset": {
        "x":-2,
        "y": 35.1,
        "z": 0.0
      }
    },
    {
      "id": "parada_062",
      "nombre": "Carretera del Norte (frente al Centro Comercial La Ballena)",
      "prefabName": "Pbus_stop_sign_-_low_poly",
      "longitude": -15.4421858,
      "latitude": 28.0999386,
      "height": 152.0,
      "scale": {
        "x": 0.5,
        "y": 0.5,
        "z": 0.5
      },
      "tag": "BusStop",
      "localOffset": {
        "x":-2,
        "y": 35.1,
        "z": 0.0
      }
    },
    {
      "id": "parada_063",
      "nombre": "Av. Escaleritas, 51",
      "prefabName": "Pbus_stop_sign_-_low_poly",
      "longitude": -15.4371089,
      "latitude": 28.1185747,
      "height": 112.0,
      "scale": {
        "x": 0.5,
        "y": 0.5,
        "z": 0.5
      },
      "tag": "BusStop",
      "localOffset": {
        "x":-2,
        "y": 35.1,
        "z": 0.0
      }
    },
    {
      "id": "parada_064",
      "nombre": "Pº San Antonio, 4",
      "prefabName": "Pbus_stop_sign_-_low_poly",
      "longitude": -15.4224448,
      "latitude": 28.1079142,
      "height": 45.0,
      "scale": {
        "x": 0.5,
        "y": 0.5,
        "z": 0.5
      },
      "tag": "BusStop",
      "localOffset": {
        "x":-2,
        "y": 35.1,
        "z": 0.0
      }
    },
    {
      "id": "parada_065",
      "nombre": "Pº San Antonio, 27",
      "prefabName": "Pbus_stop_sign_-_low_poly",
      "longitude": -15.4225086,
      "latitude": 28.1080521,
      "height": 46.0,
      "scale": {
        "x": 0.5,
        "y": 0.5,
        "z": 0.5
      },
      "tag": "BusStop",
      "localOffset": {
        "x":-2,
        "y": 35.1,
        "z": 0.0
      }
    },
    {
      "id": "parada_066",
      "nombre": "Primero de Mayo, 35",
      "prefabName": "Pbus_stop_sign_-_low_poly",
      "longitude": -15.4205783,
      "latitude": 28.1065745,
      "height": 35.0,
      "scale": {
        "x": 0.5,
        "y": 0.5,
        "z": 0.5
      },
      "tag": "BusStop",
      "localOffset": {
        "x":-2,
        "y": 35.1,
        "z": 0.0
      }
    },
    {
      "id": "parada_067",
      "nombre": "Primero de Mayo, 56",
      "prefabName": "Pbus_stop_sign_-_low_poly",
      "longitude": -15.4200156,
      "latitude": 28.1059262,
      "height": 35.0,
      "scale": {
        "x": 0.5,
        "y": 0.5,
        "z": 0.5
      },
      "tag": "BusStop",
      "localOffset": {
        "x":-2,
        "y": 35.1,
        "z": 0.0
      }
    },
    {
      "id": "parada_068",
      "nombre": "Alceste, 27",
      "prefabName": "Pbus_stop_sign_-_low_poly",
      "longitude": -15.4308502,
      "latitude": 28.1102045,
      "height": 119.0,
      "scale": {
        "x": 0.5,
        "y": 0.5,
        "z": 0.5
      },
      "tag": "BusStop",
      "localOffset": {
        "x":-2,
        "y": 35.1,
        "z": 0.0
      }
    },
    {
      "id": "parada_069",
      "nombre": "Zaragoza, 26",
      "prefabName": "Pbus_stop_sign_-_low_poly",
      "longitude": -15.4328462,
      "latitude": 28.1111618,
      "height": 122.0,
      "scale": {
        "x": 0.5,
        "y": 0.5,
        "z": 0.5
      },
      "tag": "BusStop",
      "localOffset": {
        "x":-2,
        "y": 35.1,
        "z": 0.0
      }
    },
    {
      "id": "parada_070",
      "nombre": "Zaragoza, 27",
      "prefabName": "Pbus_stop_sign_-_low_poly",
      "longitude": -15.4329167,
      "latitude": 28.1110444,
      "height": 123.0,
      "scale": {
        "x": 0.5,
        "y": 0.5,
        "z": 0.5
      },
      "tag": "BusStop",
      "localOffset": {
        "x":-2,
        "y": 35.1,
        "z": 0.0
      }
    },
    {
      "id": "parada_071",
      "nombre": "Av. Escaleritas (club La Cornisa)",
      "prefabName": "Pbus_stop_sign_-_low_poly",
      "longitude": -15.4359256,
      "latitude": 28.1230624,
      "height": 85.0,
      "scale": {
        "x": 0.5,
        "y": 0.5,
        "z": 0.5
      },
      "tag": "BusStop",
      "localOffset": {
        "x":-2,
        "y": 35.1,
        "z": 0.0
      }
    },
    {
      "id": "parada_072",
      "nombre": "Obispo Romo (Mercado de Altavista)",
      "prefabName": "Pbus_stop_sign_-_low_poly",
      "longitude": -15.4353536,
      "latitude": 28.1145504,
      "height": 124.0,
      "scale": {
        "x": 0.5,
        "y": 0.5,
        "z": 0.5
      },
      "tag": "BusStop",
      "localOffset": {
        "x":-2,
        "y": 35.1,
        "z": 0.0
      }
    },
    {
      "id": "parada_073",
      "nombre": "Obispo Romo (parque Hermanos Millares)",
      "prefabName": "Pbus_stop_sign_-_low_poly",
      "longitude": -15.4370542,
      "latitude": 28.1168641,
      "height": 119.0,
      "scale": {
        "x": 0.5,
        "y": 0.5,
        "z": 0.5
      },
      "tag": "BusStop",
      "localOffset": {
        "x":-2,
        "y": 35.1,
        "z": 0.0
      }
    },
    {
      "id": "parada_074",
      "nombre": "",
      "prefabName": "Pbus_stop_sign_-_low_poly",
      "longitude": -15.4318185,
      "latitude": 28.1355185,
      "height": 28.0,
      "scale": {
        "x": 0.5,
        "y": 0.5,
        "z": 0.5
      },
      "tag": "BusStop",
      "localOffset": {
        "x":-2,
        "y": 35.1,
        "z": 0.0
      }
    },
    {
      "id": "parada_075",
      "nombre": "Concepción Arenal (pl. de España)",
      "prefabName": "Pbus_stop_sign_-_low_poly",
      "longitude": -15.4349593,
      "latitude": 28.1336358,
      "height": 33.0,
      "scale": {
        "x": 0.5,
        "y": 0.5,
        "z": 0.5
      },
      "tag": "BusStop",
      "localOffset": {
        "x":-2,
        "y": 35.1,
        "z": 0.0
      }
    },
    {
      "id": "parada_076",
      "nombre": "Pº de Chil (Estadio Insular)",
      "prefabName": "Pbus_stop_sign_-_low_poly",
      "longitude": -15.4354025,
      "latitude": 28.1281922,
      "height": 44.0,
      "scale": {
        "x": 0.5,
        "y": 0.5,
        "z": 0.5
      },
      "tag": "BusStop",
      "localOffset": {
        "x":-2,
        "y": 35.1,
        "z": 0.0
      }
    },
    {
      "id": "parada_077",
      "nombre": "",
      "prefabName": "Pbus_stop_sign_-_low_poly",
      "longitude": -15.4157983,
      "latitude": 28.0771396,
      "height": 24.0,
      "scale": {
        "x": 0.5,
        "y": 0.5,
        "z": 0.5
      },
      "tag": "BusStop",
      "localOffset": {
        "x":-2,
        "y": 35.1,
        "z": 0.0
      }
    },
    {
      "id": "parada_078",
      "nombre": "Tomas Miller, frente 31",
      "prefabName": "Pbus_stop_sign_-_low_poly",
      "longitude": -15.4334109,
      "latitude": 28.1374876,
      "height": 19.0,
      "scale": {
        "x": 0.5,
        "y": 0.5,
        "z": 0.5
      },
      "tag": "BusStop",
      "localOffset": {
        "x":-2,
        "y": 35.1,
        "z": 0.0
      }
    },
    {
      "id": "parada_079",
      "nombre": "Juan Rejón (Castillo de La Luz)",
      "prefabName": "Pbus_stop_sign_-_low_poly",
      "longitude": -15.4252018,
      "latitude": 28.149179,
      "height": 14.0,
      "scale": {
        "x": 0.5,
        "y": 0.5,
        "z": 0.5
      },
      "tag": "BusStop",
      "localOffset": {
        "x":-2,
        "y": 35.1,
        "z": 0.0
      }
    },
    {
      "id": "parada_080",
      "nombre": "Alfredo L. Jones, 1",
      "prefabName": "Pbus_stop_sign_-_low_poly",
      "longitude": -15.4302732,
      "latitude": 28.142193,
      "height": 24.0,
      "scale": {
        "x": 0.5,
        "y": 0.5,
        "z": 0.5
      },
      "tag": "BusStop",
      "localOffset": {
        "x":-2,
        "y": 35.1,
        "z": 0.0
      }
    },
    {
      "id": "parada_081",
      "nombre": "Galicia, 32",
      "prefabName": "Pbus_stop_sign_-_low_poly",
      "longitude": -15.4332666,
      "latitude": 28.1351831,
      "height": 27.0,
      "scale": {
        "x": 0.5,
        "y": 0.5,
        "z": 0.5
      },
      "tag": "BusStop",
      "localOffset": {
        "x":-2,
        "y": 35.1,
        "z": 0.0
      }
    },
    {
      "id": "parada_082",
      "nombre": "Av. de Canarias (San Telmo)",
      "prefabName": "Pbus_stop_sign_-_low_poly",
      "longitude": -15.4151634,
      "latitude": 28.1089897,
      "height": 11.0,
      "scale": {
        "x": 0.5,
        "y": 0.5,
        "z": 0.5
      },
      "tag": "BusStop",
      "localOffset": {
        "x":-2,
        "y": 35.1,
        "z": 0.0
      }
    },
    {
      "id": "parada_083",
      "nombre": "Av. Escaleritas (C.C. La Ballena)",
      "prefabName": "Pbus_stop_sign_-_low_poly",
      "longitude": -15.4437708,
      "latitude": 28.1033149,
      "height": 164.0,
      "scale": {
        "x": 0.5,
        "y": 0.5,
        "z": 0.5
      },
      "tag": "BusStop",
      "localOffset": {
        "x":-2,
        "y": 35.1,
        "z": 0.0
      }
    },
    {
      "id": "parada_084",
      "nombre": "León y Castillo (Colegio Salesiano)",
      "prefabName": "Pbus_stop_sign_-_low_poly",
      "longitude": -15.4275488,
      "latitude": 28.1229305,
      "height": 10.0,
      "scale": {
        "x": 0.5,
        "y": 0.5,
        "z": 0.5
      },
      "tag": "BusStop",
      "localOffset": {
        "x":-2,
        "y": 35.1,
        "z": 0.0
      }
    },
    {
      "id": "parada_085",
      "nombre": "León y Castillo, 209",
      "prefabName": "Pbus_stop_sign_-_low_poly",
      "longitude": -15.4256053,
      "latitude": 28.1201022,
      "height": 15.0,
      "scale": {
        "x": 0.5,
        "y": 0.5,
        "z": 0.5
      },
      "tag": "BusStop",
      "localOffset": {
        "x":-2,
        "y": 35.1,
        "z": 0.0
      }
    },
    {
      "id": "parada_086",
      "nombre": "Mariucha (plaza Don Benito)",
      "prefabName": "Pbus_stop_sign_-_low_poly",
      "longitude": -15.4303018,
      "latitude": 28.1133402,
      "height": 102.0,
      "scale": {
        "x": 0.5,
        "y": 0.5,
        "z": 0.5
      },
      "tag": "BusStop",
      "localOffset": {
        "x":-2,
        "y": 35.1,
        "z": 0.0
      }
    },
    {
      "id": "parada_087",
      "nombre": "La Tropical",
      "prefabName": "Pbus_stop_sign_-_low_poly",
      "longitude": -15.4320905,
      "latitude": 28.0859844,
      "height": 116.0,
      "scale": {
        "x": 0.5,
        "y": 0.5,
        "z": 0.5
      },
      "tag": "BusStop",
      "localOffset": {
        "x":-2,
        "y": 35.1,
        "z": 0.0
      }
    },
    {
      "id": "parada_088",
      "nombre": "Ctra. subida a Tafira (La Favorita)",
      "prefabName": "Pbus_stop_sign_-_low_poly",
      "longitude": -15.4368354,
      "latitude": 28.0848544,
      "height": 184.0,
      "scale": {
        "x": 0.5,
        "y": 0.5,
        "z": 0.5
      },
      "tag": "BusStop",
      "localOffset": {
        "x":-2,
        "y": 35.1,
        "z": 0.0
      }
    },
    {
      "id": "parada_089",
      "nombre": "Pº San José (iglesia San José)",
      "prefabName": "Pbus_stop_sign_-_low_poly",
      "longitude": -15.4182406,
      "latitude": 28.0947041,
      "height": 34.0,
      "scale": {
        "x": 0.5,
        "y": 0.5,
        "z": 0.5
      },
      "tag": "BusStop",
      "localOffset": {
        "x":-2,
        "y": 35.1,
        "z": 0.0
      }
    },
    {
      "id": "parada_090",
      "nombre": "Pº San José (iglesia San José)",
      "prefabName": "Pbus_stop_sign_-_low_poly",
      "longitude": -15.4184224,
      "latitude": 28.0950614,
      "height": 37.0,
      "scale": {
        "x": 0.5,
        "y": 0.5,
        "z": 0.5
      },
      "tag": "BusStop",
      "localOffset": {
        "x":-2,
        "y": 35.1,
        "z": 0.0
      }
    },
    {
      "id": "parada_091",
      "nombre": "",
      "prefabName": "Pbus_stop_sign_-_low_poly",
      "longitude": -15.4137663,
      "latitude": 28.1038808,
      "height": 15.0,
      "scale": {
        "x": 0.5,
        "y": 0.5,
        "z": 0.5
      },
      "tag": "BusStop",
      "localOffset": {
        "x":0,
        "y": 33.1,
        "z": 0.0
      }
    },
    {
      "id": "parada_092",
      "nombre": "Roque Nublo 4",
      "prefabName": "Pbus_stop_sign_-_low_poly",
      "longitude": -15.4216849,
      "latitude": 28.1522356,
      "height": 25.0,
      "scale": {
        "x": 0.5,
        "y": 0.5,
        "z": 0.5
      },
      "tag": "BusStop",
      "localOffset": {
        "x":-2,
        "y": 35.1,
        "z": 0.0
      }
    },
    {
      "id": "parada_093",
      "nombre": "Palmar, frente 82",
      "prefabName": "Pbus_stop_sign_-_low_poly",
      "longitude": -15.4236007,
      "latitude": 28.1533336,
      "height": 39.0,
      "scale": {
        "x": 0.5,
        "y": 0.5,
        "z": 0.5
      },
      "tag": "BusStop",
      "localOffset": {
        "x":-2,
        "y": 35.1,
        "z": 0.0
      }
    },
    {
      "id": "parada_094",
      "nombre": "",
      "prefabName": "Pbus_stop_sign_-_low_poly",
      "longitude": -15.462588,
      "latitude": 28.0737106,
      "height": 268.0,
      "scale": {
        "x": 0.5,
        "y": 0.5,
        "z": 0.5
      },
      "tag": "BusStop",
      "localOffset": {
        "x":-2,
        "y": 35.1,
        "z": 0.0
      }
    },
    {
      "id": "parada_095",
      "nombre": "Manuel Becerra (Puerto)",
      "prefabName": "Pbus_stop_sign_-_low_poly",
      "longitude": -15.4218786,
      "latitude": 28.1499608,
      "height": 11.0,
      "scale": {
        "x": 0.5,
        "y": 0.5,
        "z": 0.5
      },
      "tag": "BusStop",
      "localOffset": {
        "x":-2,
        "y": 35.1,
        "z": 0.0
      }
    },
    {
      "id": "parada_096",
      "nombre": "Pico Viento",
      "prefabName": "Pbus_stop_sign_-_low_poly",
      "longitude": -15.4445681,
      "latitude": 28.077173,
      "height": 258.0,
      "scale": {
        "x": 0.5,
        "y": 0.5,
        "z": 0.5
      },
      "tag": "BusStop",
      "localOffset": {
        "x":-2,
        "y": 35.1,
        "z": 0.0
      }
    },
    {
      "id": "parada_097",
      "nombre": "Albareda, 43",
      "prefabName": "Pbus_stop_sign_-_low_poly",
      "longitude": -15.4302774,
      "latitude": 28.144902,
      "height": 15.0,
      "scale": {
        "x": 0.5,
        "y": 0.5,
        "z": 0.5
      },
      "tag": "BusStop",
      "localOffset": {
        "x":-2,
        "y": 35.1,
        "z": 0.0
      }
    },
    {
      "id": "parada_098",
      "nombre": "Albareda (Mercado del Puerto)",
      "prefabName": "Pbus_stop_sign_-_low_poly",
      "longitude": -15.4292862,
      "latitude": 28.1481161,
      "height": 16.0,
      "scale": {
        "x": 0.5,
        "y": 0.5,
        "z": 0.5
      },
      "tag": "BusStop",
      "localOffset": {
        "x":-2,
        "y": 35.1,
        "z": 0.0
      }
    },
    {
      "id": "parada_099",
      "nombre": "Presidente Alvear (Iglesia del Pino)",
      "prefabName": "Pbus_stop_sign_-_low_poly",
      "longitude": -15.4304724,
      "latitude": 28.1357007,
      "height": 24.0,
      "scale": {
        "x": 0.5,
        "y": 0.5,
        "z": 0.5
      },
      "tag": "BusStop",
      "localOffset": {
        "x":-2,
        "y": 35.1,
        "z": 0.0
      }
    },
    {
      "id": "parada_100",
      "nombre": "Presidente Alvear, 17",
      "prefabName": "Pbus_stop_sign_-_low_poly",
      "longitude": -15.4303564,
      "latitude": 28.1351256,
      "height": 26.0,
      "scale": {
        "x": 0.5,
        "y": 0.5,
        "z": 0.5
      },
      "tag": "BusStop",
      "localOffset": {
        "x":-2,
        "y": 35.1,
        "z": 0.0
      }
    },
    {
      "id": "parada_101",
      "nombre": "Mesa y López (Base Naval)",
      "prefabName": "Pbus_stop_sign_-_low_poly",
      "longitude": -15.4296116,
      "latitude": 28.1347499,
      "height": 23.0,
      "scale": {
        "x": 0.5,
        "y": 0.5,
        "z": 0.5
      },
      "tag": "BusStop",
      "localOffset": {
        "x":-2,
        "y": 35.1,
        "z": 0.0
      }
    },
    {
      "id": "parada_102",
      "nombre": "Mesa y López 38",
      "prefabName": "Pbus_stop_sign_-_low_poly",
      "longitude": -15.4328729,
      "latitude": 28.1347491,
      "height": 29.0,
      "scale": {
        "x": 0.5,
        "y": 0.5,
        "z": 0.5
      },
      "tag": "BusStop",
      "localOffset": {
        "x":-2,
        "y": 35.1,
        "z": 0.0
      }
    },
    {
      "id": "parada_103",
      "nombre": "Mesa y López 42",
      "prefabName": "Pbus_stop_sign_-_low_poly",
      "longitude": -15.4338823,
      "latitude": 28.1346751,
      "height": 32.0,
      "scale": {
        "x": 0.5,
        "y": 0.5,
        "z": 0.5
      },
      "tag": "BusStop",
      "localOffset": {
        "x":-2,
        "y": 35.1,
        "z": 0.0
      }
    },
    {
      "id": "parada_104",
      "nombre": "El Corte Inglés",
      "prefabName": "Pbus_stop_sign_-_low_poly",
      "longitude": -15.4312084,
      "latitude": 28.1346422,
      "height": 31.0,
      "scale": {
        "x": 0.5,
        "y": 0.5,
        "z": 0.5
      },
      "tag": "BusStop",
      "localOffset": {
        "x":-2,
        "y": 35.1,
        "z": 0.0
      }
    },
    {
      "id": "parada_105",
      "nombre": "Reyes Católicos 9",
      "prefabName": "Pbus_stop_sign_-_low_poly",
      "longitude": -15.4138776,
      "latitude": 28.0997822,
      "height": 24.0,
      "scale": {
        "x": 0.5,
        "y": 0.5,
        "z": 0.5
      },
      "tag": "BusStop",
      "localOffset": {
        "x":-2,
        "y": 35.1,
        "z": 0.0
      }
    },
    {
      "id": "parada_106",
      "nombre": "Plaza de las Ranas",
      "prefabName": "Pbus_stop_sign_-_low_poly",
      "longitude": -15.4149962,
      "latitude": 28.1020894,
      "height": 22.0,
      "scale": {
        "x": 0.5,
        "y": 0.5,
        "z": 0.5
      },
      "tag": "BusStop",
      "localOffset": {
        "x":-2,
        "y": 30.1,
        "z": 0.0
      }
    },
    {
      "id": "parada_107",
      "nombre": "Plaza de las Ranas",
      "prefabName": "Pbus_stop_sign_-_low_poly",
      "longitude": -15.4150059,
      "latitude": 28.1023781,
      "height": 21.0,
      "scale": {
        "x": 0.5,
        "y": 0.5,
        "z": 0.5
      },
      "tag": "BusStop",
      "localOffset": {
        "x":-2,
        "y": 30.1,
        "z": 0.0
      }
    },
    {
      "id": "parada_108",
      "nombre": "Plaza de las Ranas",
      "prefabName": "Pbus_stop_sign_-_low_poly",
      "longitude": -15.4149058,
      "latitude": 28.1024392,
      "height": 21.0,
      "scale": {
        "x": 0.5,
        "y": 0.5,
        "z": 0.5
      },
      "tag": "BusStop",
      "localOffset": {
        "x":-2,
        "y": 30.1,
        "z": 0.0
      }
    },
    {
      "id": "parada_109",
      "nombre": "Plaza de las Ranas",
      "prefabName": "Pbus_stop_sign_-_low_poly",
      "longitude": -15.4148092,
      "latitude": 28.1024982,
      "height": 20.0,
      "scale": {
        "x": 0.5,
        "y": 0.5,
        "z": 0.5
      },
      "tag": "BusStop",
      "localOffset": {
        "x":-2,
        "y": 30.1,
        "z": 0.0
      }
    },
    {
      "id": "parada_110",
      "nombre": "Plaza de las Ranas",
      "prefabName": "Pbus_stop_sign_-_low_poly",
      "longitude": -15.4146961,
      "latitude": 28.1025674,
      "height": 19.0,
      "scale": {
        "x": 0.5,
        "y": 0.5,
        "z": 0.5
      },
      "tag": "BusStop",
      "localOffset": {
        "x":-2,
        "y": 30.1,
        "z": 0.0
      }
    },
    {
      "id": "parada_111",
      "nombre": "El Corte Inglés",
      "prefabName": "Pbus_stop_sign_-_low_poly",
      "longitude": -15.4336482,
      "latitude": 28.1346916,
      "height": 32.0,
      "scale": {
        "x": 0.5,
        "y": 0.5,
        "z": 0.5
      },
      "tag": "BusStop",
      "localOffset": {
        "x":-2,
        "y": 35.1,
        "z": 0.0
      }
    },
    {
      "id": "parada_112",
      "nombre": "Ambulatorio De Alcaravanera",
      "prefabName": "Pbus_stop_sign_-_low_poly",
      "longitude": -15.4363586,
      "latitude": 28.1335648,
      "height": 30.0,
      "scale": {
        "x": 0.5,
        "y": 0.5,
        "z": 0.5
      },
      "tag": "BusStop",
      "localOffset": {
        "x":-2,
        "y": 35.1,
        "z": 0.0
      }
    },
    {
      "id": "parada_113",
      "nombre": "La Fosforera",
      "prefabName": "Pbus_stop_sign_-_low_poly",
      "longitude": -15.4407876,
      "latitude": 28.1324178,
      "height": 22.0,
      "scale": {
        "x": 0.5,
        "y": 0.5,
        "z": 0.5
      },
      "tag": "BusStop",
      "localOffset": {
        "x":-2,
        "y": 35.1,
        "z": 0.0
      }
    },
    {
      "id": "parada_114",
      "nombre": "C.C. Las Arenas",
      "prefabName": "Pbus_stop_sign_-_low_poly",
      "longitude": -15.4497748,
      "latitude": 28.1292609,
      "height": 16.0,
      "scale": {
        "x": 0.5,
        "y": 0.5,
        "z": 0.5
      },
      "tag": "BusStop",
      "localOffset": {
        "x":-2,
        "y": 35.1,
        "z": 0.0
      }
    },
    {
      "id": "parada_115",
      "nombre": "C.C. Las Arenas",
      "prefabName": "Pbus_stop_sign_-_low_poly",
      "longitude": -15.4458702,
      "latitude": 28.1272184,
      "height": 28.0,
      "scale": {
        "x": 0.5,
        "y": 0.5,
        "z": 0.5
      },
      "tag": "BusStop",
      "localOffset": {
        "x":-2,
        "y": 35.1,
        "z": 0.0
      }
    },
    {
      "id": "parada_116",
      "nombre": "calle doña luisa",
      "prefabName": "Pbus_stop_sign_-_low_poly",
      "longitude": -15.4173347,
      "latitude": 28.0829267,
      "height": 21.0,
      "scale": {
        "x": 0.5,
        "y": 0.5,
        "z": 0.5
      },
      "tag": "BusStop",
      "localOffset": {
        "x":-2,
        "y": 35.1,
        "z": 0.0
      }
    },
    {
      "id": "parada_117",
      "nombre": "Ctra. de San Lorenzo, 230",
      "prefabName": "Pbus_stop_sign_-_low_poly",
      "longitude": -15.4784042,
      "latitude": 28.0765879,
      "height": 237.0,
      "scale": {
        "x": 0.5,
        "y": 0.5,
        "z": 0.5
      },
      "tag": "BusStop",
      "localOffset": {
        "x":-2,
        "y": 35.1,
        "z": 0.0
      }
    },
    {
      "id": "parada_118",
      "nombre": "Carretera de San Lorenzo, frente 230",
      "prefabName": "Pbus_stop_sign_-_low_poly",
      "longitude": -15.4780363,
      "latitude": 28.0768259,
      "height": 233.0,
      "scale": {
        "x": 0.5,
        "y": 0.5,
        "z": 0.5
      },
      "tag": "BusStop",
      "localOffset": {
        "x":-2,
        "y": 35.1,
        "z": 0.0
      }
    },
    {
      "id": "parada_119",
      "nombre": "Ctra. de San Lorenzo (barranco)",
      "prefabName": "Pbus_stop_sign_-_low_poly",
      "longitude": -15.4788923,
      "latitude": 28.0770356,
      "height": 234.0,
      "scale": {
        "x": 0.5,
        "y": 0.5,
        "z": 0.5
      },
      "tag": "BusStop",
      "localOffset": {
        "x":-2,
        "y": 35.1,
        "z": 0.0
      }
    },
    {
      "id": "parada_120",
      "nombre": "Centro Deportivo San Lorenzo",
      "prefabName": "Pbus_stop_sign_-_low_poly",
      "longitude": -15.4682814,
      "latitude": 28.0735546,
      "height": 295.0,
      "scale": {
        "x": 0.5,
        "y": 0.5,
        "z": 0.5
      },
      "tag": "BusStop",
      "localOffset": {
        "x":-2,
        "y": 35.1,
        "z": 0.0
      }
    },
    {
      "id": "parada_121",
      "nombre": "Ctra. de San Lorenzo, 282",
      "prefabName": "Pbus_stop_sign_-_low_poly",
      "longitude": -15.473906,
      "latitude": 28.0757874,
      "height": 234.0,
      "scale": {
        "x": 0.5,
        "y": 0.5,
        "z": 0.5
      },
      "tag": "BusStop",
      "localOffset": {
        "x":-2,
        "y": 35.1,
        "z": 0.0
      }
    },
    {
      "id": "parada_122",
      "nombre": "Ctra. de San Lorenzo, frente 282",
      "prefabName": "Pbus_stop_sign_-_low_poly",
      "longitude": -15.4740128,
      "latitude": 28.0757896,
      "height": 232.0,
      "scale": {
        "x": 0.5,
        "y": 0.5,
        "z": 0.5
      },
      "tag": "BusStop",
      "localOffset": {
        "x":-2,
        "y": 35.1,
        "z": 0.0
      }
    },
    {
      "id": "parada_123",
      "nombre": "Camilo Martinón Navarro, frente 32",
      "prefabName": "Pbus_stop_sign_-_low_poly",
      "longitude": -15.4639437,
      "latitude": 28.0746537,
      "height": 307.0,
      "scale": {
        "x": 0.5,
        "y": 0.5,
        "z": 0.5
      },
      "tag": "BusStop",
      "localOffset": {
        "x":-2,
        "y": 35.1,
        "z": 0.0
      }
    },
    {
      "id": "parada_124",
      "nombre": "Camilo Martinón Navarro, 69",
      "prefabName": "Pbus_stop_sign_-_low_poly",
      "longitude": -15.4651965,
      "latitude": 28.0746432,
      "height": 308.0,
      "scale": {
        "x": 0.5,
        "y": 0.5,
        "z": 0.5
      },
      "tag": "BusStop",
      "localOffset": {
        "x":-2,
        "y": 35.1,
        "z": 0.0
      }
    },
    {
      "id": "parada_125",
      "nombre": "Camilo Martinón Navarro, 30",
      "prefabName": "Pbus_stop_sign_-_low_poly",
      "longitude": -15.4637436,
      "latitude": 28.0748087,
      "height": 305.0,
      "scale": {
        "x": 0.5,
        "y": 0.5,
        "z": 0.5
      },
      "tag": "BusStop",
      "localOffset": {
        "x":-2,
        "y": 35.1,
        "z": 0.0
      }
    },
    {
      "id": "parada_126",
      "nombre": "Camilo Martinón Navarro (Tiscamanita)",
      "prefabName": "Pbus_stop_sign_-_low_poly",
      "longitude": -15.4634311,
      "latitude": 28.0759975,
      "height": 299.0,
      "scale": {
        "x": 0.5,
        "y": 0.5,
        "z": 0.5
      },
      "tag": "BusStop",
      "localOffset": {
        "x":-2,
        "y": 35.1,
        "z": 0.0
      }
    },
    {
      "id": "parada_127",
      "nombre": "Camilo Martinón Navarro, 3",
      "prefabName": "Pbus_stop_sign_-_low_poly",
      "longitude": -15.4635263,
      "latitude": 28.0764929,
      "height": 295.0,
      "scale": {
        "x": 0.5,
        "y": 0.5,
        "z": 0.5
      },
      "tag": "BusStop",
      "localOffset": {
        "x":-2,
        "y": 35.1,
        "z": 0.0
      }
    },
    {
      "id": "parada_128",
      "nombre": "Ctra. de San Lorenzo, 400",
      "prefabName": "Pbus_stop_sign_-_low_poly",
      "longitude": -15.462528,
      "latitude": 28.0777721,
      "height": 285.0,
      "scale": {
        "x": 0.5,
        "y": 0.5,
        "z": 0.5
      },
      "tag": "BusStop",
      "localOffset": {
        "x":-2,
        "y": 35.1,
        "z": 0.0
      }
    },
    {
      "id": "parada_129",
      "nombre": "Ctra. de San Lorenzo, 383",
      "prefabName": "Pbus_stop_sign_-_low_poly",
      "longitude": -15.4643943,
      "latitude": 28.0787793,
      "height": 288.0,
      "scale": {
        "x": 0.5,
        "y": 0.5,
        "z": 0.5
      },
      "tag": "BusStop",
      "localOffset": {
        "x":-2,
        "y": 35.1,
        "z": 0.0
      }
    },
    {
      "id": "parada_130",
      "nombre": "Ctra. de Almatriche, 94",
      "prefabName": "Pbus_stop_sign_-_low_poly",
      "longitude": -15.4591542,
      "latitude": 28.086221,
      "height": 245.0,
      "scale": {
        "x": 0.5,
        "y": 0.5,
        "z": 0.5
      },
      "tag": "BusStop",
      "localOffset": {
        "x":-2,
        "y": 35.1,
        "z": 0.0
      }
    },
    {
      "id": "parada_131",
      "nombre": "Ctra. de Almatriche (gasolinera)",
      "prefabName": "Pbus_stop_sign_-_low_poly",
      "longitude": -15.4594175,
      "latitude": 28.0909004,
      "height": 248.0,
      "scale": {
        "x": 0.5,
        "y": 0.5,
        "z": 0.5
      },
      "tag": "BusStop",
      "localOffset": {
        "x":-2,
        "y": 35.1,
        "z": 0.0
      }
    },
    {
      "id": "parada_132",
      "nombre": "Cuesta Blanca, 9",
      "prefabName": "Pbus_stop_sign_-_low_poly",
      "longitude": -15.4604928,
      "latitude": 28.0946852,
      "height": 217.0,
      "scale": {
        "x": 0.5,
        "y": 0.5,
        "z": 0.5
      },
      "tag": "BusStop",
      "localOffset": {
        "x":-2,
        "y": 35.1,
        "z": 0.0
      }
    },
    {
      "id": "parada_133",
      "nombre": "Cuesta Blanca, frente 11",
      "prefabName": "Pbus_stop_sign_-_low_poly",
      "longitude": -15.4606227,
      "latitude": 28.094617,
      "height": 216.0,
      "scale": {
        "x": 0.5,
        "y": 0.5,
        "z": 0.5
      },
      "tag": "BusStop",
      "localOffset": {
        "x":-2,
        "y": 35.1,
        "z": 0.0
      }
    },
    {
      "id": "parada_134",
      "nombre": "Plutón, frente 14",
      "prefabName": "Pbus_stop_sign_-_low_poly",
      "longitude": -15.4619305,
      "latitude": 28.095013,
      "height": 190.0,
      "scale": {
        "x": 0.5,
        "y": 0.5,
        "z": 0.5
      },
      "tag": "BusStop",
      "localOffset": {
        "x":-2,
        "y": 35.1,
        "z": 0.0
      }
    },
    {
      "id": "parada_135",
      "nombre": "Ctra. de Tamaraceite (urb. La Guillena)",
      "prefabName": "Pbus_stop_sign_-_low_poly",
      "longitude": -15.4626195,
      "latitude": 28.0958328,
      "height": 180.0,
      "scale": {
        "x": 0.5,
        "y": 0.5,
        "z": 0.5
      },
      "tag": "BusStop",
      "localOffset": {
        "x":-2,
        "y": 35.1,
        "z": 0.0
      }
    },
    {
      "id": "parada_136",
      "nombre": "Ctra. de Tamaraceite (urb. La Guillena)",
      "prefabName": "Pbus_stop_sign_-_low_poly",
      "longitude": -15.4624981,
      "latitude": 28.0959793,
      "height": 180.0,
      "scale": {
        "x": 0.5,
        "y": 0.5,
        "z": 0.5
      },
      "tag": "BusStop",
      "localOffset": {
        "x":-2,
        "y": 35.1,
        "z": 0.0
      }
    },
    {
      "id": "parada_137",
      "nombre": "Olivo (ctra. de Almatriche)",
      "prefabName": "Pbus_stop_sign_-_low_poly",
      "longitude": -15.4590377,
      "latitude": 28.0938721,
      "height": 229.0,
      "scale": {
        "x": 0.5,
        "y": 0.5,
        "z": 0.5
      },
      "tag": "BusStop",
      "localOffset": {
        "x":-2,
        "y": 35.1,
        "z": 0.0
      }
    },
    {
      "id": "parada_138",
      "nombre": "Olivo (ctra. de Almatriche)",
      "prefabName": "Pbus_stop_sign_-_low_poly",
      "longitude": -15.4588921,
      "latitude": 28.0940925,
      "height": 227.0,
      "scale": {
        "x": 0.5,
        "y": 0.5,
        "z": 0.5
      },
      "tag": "BusStop",
      "localOffset": {
        "x":-2,
        "y": 35.1,
        "z": 0.0
      }
    },
    {
      "id": "parada_139",
      "nombre": "Tafira Baja",
      "prefabName": "Pbus_stop_sign_-_low_poly",
      "longitude": -15.4496811,
      "latitude": 28.0721845,
      "height": 313.0,
      "scale": {
        "x": 0.5,
        "y": 0.5,
        "z": 0.5
      },
      "tag": "BusStop",
      "localOffset": {
        "x":-2,
        "y": 35.1,
        "z": 0.0
      }
    },
    {
      "id": "parada_140",
      "nombre": "Biblioteca Universitaria",
      "prefabName": "Pbus_stop_sign_-_low_poly",
      "longitude": -15.4517288,
      "latitude": 28.0755716,
      "height": 286.0,
      "scale": {
        "x": 0.5,
        "y": 0.5,
        "z": 0.5
      },
      "tag": "BusStop",
      "localOffset": {
        "x":-2,
        "y": 35.1,
        "z": 0.0
      }
    },
    {
      "id": "parada_141",
      "nombre": "Biblioteca Universitaria",
      "prefabName": "Pbus_stop_sign_-_low_poly",
      "longitude": -15.4520725,
      "latitude": 28.0756222,
      "height": 285.0,
      "scale": {
        "x": 0.5,
        "y": 0.5,
        "z": 0.5
      },
      "tag": "BusStop",
      "localOffset": {
        "x":-2,
        "y": 35.1,
        "z": 0.0
      }
    },
    {
      "id": "parada_142",
      "nombre": "Ciencias Jurídicas (Módulo B)",
      "prefabName": "Pbus_stop_sign_-_low_poly",
      "longitude": -15.4492476,
      "latitude": 28.0781081,
      "height": 269.0,
      "scale": {
        "x": 0.5,
        "y": 0.5,
        "z": 0.5
      },
      "tag": "BusStop",
      "localOffset": {
        "x":-2,
        "y": 35.1,
        "z": 0.0
      }
    },
    {
      "id": "parada_143",
      "nombre": "Aulario Ciencias Jurídicas",
      "prefabName": "Pbus_stop_sign_-_low_poly",
      "longitude": -15.4494693,
      "latitude": 28.0781542,
      "height": 267.0,
      "scale": {
        "x": 0.5,
        "y": 0.5,
        "z": 0.5
      },
      "tag": "BusStop",
      "localOffset": {
        "x":-2,
        "y": 35.1,
        "z": 0.0
      }
    },
    {
      "id": "parada_144",
      "nombre": "Parque Tecnológico",
      "prefabName": "Pbus_stop_sign_-_low_poly",
      "longitude": -15.4534227,
      "latitude": 28.079517,
      "height": 269.0,
      "scale": {
        "x": 0.5,
        "y": 0.5,
        "z": 0.5
      },
      "tag": "BusStop",
      "localOffset": {
        "x":-2,
        "y": 35.1,
        "z": 0.0
      }
    },
    {
      "id": "parada_145",
      "nombre": "Ctra. Lomo Blanco, 81",
      "prefabName": "Pbus_stop_sign_-_low_poly",
      "longitude": -15.4473503,
      "latitude": 28.0800434,
      "height": 238.0,
      "scale": {
        "x": 0.5,
        "y": 0.5,
        "z": 0.5
      },
      "tag": "BusStop",
      "localOffset": {
        "x":-2,
        "y": 35.1,
        "z": 0.0
      }
    },
    {
      "id": "parada_146",
      "nombre": "Ctra. Pico Viento (Asilo de Ancianos)",
      "prefabName": "Pbus_stop_sign_-_low_poly",
      "longitude": -15.4467883,
      "latitude": 28.074016,
      "height": 284.0,
      "scale": {
        "x": 0.5,
        "y": 0.5,
        "z": 0.5
      },
      "tag": "BusStop",
      "localOffset": {
        "x":-2,
        "y": 35.1,
        "z": 0.0
      }
    },
    {
      "id": "parada_147",
      "nombre": "Ctra. Lomo Blanco (IES Felo Monzón)",
      "prefabName": "Pbus_stop_sign_-_low_poly",
      "longitude": -15.4471826,
      "latitude": 28.0818582,
      "height": 233.0,
      "scale": {
        "x": 0.5,
        "y": 0.5,
        "z": 0.5
      },
      "tag": "BusStop",
      "localOffset": {
        "x":-2,
        "y": 35.1,
        "z": 0.0
      }
    },
    {
      "id": "parada_148",
      "nombre": "Ctra. Lomo Blanco, frente 51",
      "prefabName": "Pbus_stop_sign_-_low_poly",
      "longitude": -15.4470376,
      "latitude": 28.0818927,
      "height": 233.0,
      "scale": {
        "x": 0.5,
        "y": 0.5,
        "z": 0.5
      },
      "tag": "BusStop",
      "localOffset": {
        "x":-2,
        "y": 35.1,
        "z": 0.0
      }
    },
    {
      "id": "parada_149",
      "nombre": "Córdoba, 40",
      "prefabName": "Pbus_stop_sign_-_low_poly",
      "longitude": -15.4169395,
      "latitude": 28.0929252,
      "height": 20.0,
      "scale": {
        "x": 0.5,
        "y": 0.5,
        "z": 0.5
      },
      "tag": "BusStop",
      "localOffset": {
        "x":-2,
        "y": 35.1,
        "z": 0.0
      }
    },
    {
      "id": "parada_150",
      "nombre": "Córdoba, frente 31",
      "prefabName": "Pbus_stop_sign_-_low_poly",
      "longitude": -15.4182568,
      "latitude": 28.0907716,
      "height": 22.0,
      "scale": {
        "x": 0.5,
        "y": 0.5,
        "z": 0.5
      },
      "tag": "BusStop",
      "localOffset": {
        "x":-2,
        "y": 35.1,
        "z": 0.0
      }
    },
    {
      "id": "parada_151",
      "nombre": "Córdoba, frente 49",
      "prefabName": "Pbus_stop_sign_-_low_poly",
      "longitude": -15.4195875,
      "latitude": 28.0880156,
      "height": 34.0,
      "scale": {
        "x": 0.5,
        "y": 0.5,
        "z": 0.5
      },
      "tag": "BusStop",
      "localOffset": {
        "x":-2,
        "y": 35.1,
        "z": 0.0
      }
    },
    {
      "id": "parada_152",
      "nombre": "Eufemiano Jurado (Reyes Católicos)",
      "prefabName": "Pbus_stop_sign_-_low_poly",
      "longitude": -15.4145083,
      "latitude": 28.09602,
      "height": 18.0,
      "scale": {
        "x": 0.5,
        "y": 0.5,
        "z": 0.5
      },
      "tag": "BusStop",
      "localOffset": {
        "x":-2,
        "y": 35.1,
        "z": 0.0
      }
    },
    {
      "id": "parada_153",
      "nombre": "Mercado Vegueta",
      "prefabName": "Pbus_stop_sign_-_low_poly",
      "longitude": -15.4134095,
      "latitude": 28.1028447,
      "height": 14.0,
      "scale": {
        "x": 0.5,
        "y": 0.5,
        "z": 0.5
      },
      "tag": "BusStop",
      "localOffset": {
        "x":-2,
        "y": 35.1,
        "z": 0.0
      }
    },
    {
      "id": "parada_154",
      "nombre": "Córdoba, 54",
      "prefabName": "Pbus_stop_sign_-_low_poly",
      "longitude": -15.4177996,
      "latitude": 28.0859651,
      "height": 21.0,
      "scale": {
        "x": 0.5,
        "y": 0.5,
        "z": 0.5
      },
      "tag": "BusStop",
      "localOffset": {
        "x":-2,
        "y": 35.1,
        "z": 0.0
      }
    },
    {
      "id": "parada_155",
      "nombre": "Alicante (colegio Islas Canarias)",
      "prefabName": "Pbus_stop_sign_-_low_poly",
      "longitude": -15.4172274,
      "latitude": 28.085258,
      "height": 19.0,
      "scale": {
        "x": 0.5,
        "y": 0.5,
        "z": 0.5
      },
      "tag": "BusStop",
      "localOffset": {
        "x":-2,
        "y": 35.1,
        "z": 0.0
      }
    },
    {
      "id": "parada_156",
      "nombre": "Alicante (colegio Islas Canarias)",
      "prefabName": "Pbus_stop_sign_-_low_poly",
      "longitude": -15.4170976,
      "latitude": 28.0850251,
      "height": 18.0,
      "scale": {
        "x": 0.5,
        "y": 0.5,
        "z": 0.5
      },
      "tag": "BusStop",
      "localOffset": {
        "x":-2,
        "y": 35.1,
        "z": 0.0
      }
    },
    {
      "id": "parada_157",
      "nombre": "Lentini (Monopol)",
      "prefabName": "Pbus_stop_sign_-_low_poly",
      "longitude": -15.4151769,
      "latitude": 28.1022709,
      "height": 21.0,
      "scale": {
        "x": 0.5,
        "y": 0.5,
        "z": 0.5
      },
      "tag": "BusStop",
      "localOffset": {
        "x":-2,
        "y": 30.1,
        "z": 0.0
      }
    },
    {
      "id": "parada_158",
      "nombre": "Entrada A Los Giles",
      "prefabName": "Pbus_stop_sign_-_low_poly",
      "longitude": -15.4762855,
      "latitude": 28.1116845,
      "height": 252.0,
      "scale": {
        "x": 0.5,
        "y": 0.5,
        "z": 0.5
      },
      "tag": "BusStop",
      "localOffset": {
        "x":-2,
        "y": 35.1,
        "z": 0.0
      }
    },
    {
      "id": "parada_159",
      "nombre": "Los Giles",
      "prefabName": "Pbus_stop_sign_-_low_poly",
      "longitude": -15.4755118,
      "latitude": 28.1163912,
      "height": 290.0,
      "scale": {
        "x": 0.5,
        "y": 0.5,
        "z": 0.5
      },
      "tag": "BusStop",
      "localOffset": {
        "x":-2,
        "y": 35.1,
        "z": 0.0
      }
    },
    {
      "id": "parada_160",
      "nombre": "Los Giles",
      "prefabName": "Pbus_stop_sign_-_low_poly",
      "longitude": -15.475577,
      "latitude": 28.1164646,
      "height": 290.0,
      "scale": {
        "x": 0.5,
        "y": 0.5,
        "z": 0.5
      },
      "tag": "BusStop",
      "localOffset": {
        "x":-2,
        "y": 35.1,
        "z": 0.0
      }
    },
    {
      "id": "parada_161",
      "nombre": "Mirador Bahía De Las Canteras",
      "prefabName": "Pbus_stop_sign_-_low_poly",
      "longitude": -15.4771059,
      "latitude": 28.122029,
      "height": 223.0,
      "scale": {
        "x": 0.5,
        "y": 0.5,
        "z": 0.5
      },
      "tag": "BusStop",
      "localOffset": {
        "x":-2,
        "y": 35.1,
        "z": 0.0
      }
    },
    {
      "id": "parada_162",
      "nombre": "Peña La Gaviota",
      "prefabName": "Pbus_stop_sign_-_low_poly",
      "longitude": -15.4711537,
      "latitude": 28.1279864,
      "height": 24.0,
      "scale": {
        "x": 0.5,
        "y": 0.5,
        "z": 0.5
      },
      "tag": "BusStop",
      "localOffset": {
        "x":-2,
        "y": 35.1,
        "z": 0.0
      }
    },
    {
      "id": "parada_163",
      "nombre": "",
      "prefabName": "Pbus_stop_sign_-_low_poly",
      "longitude": -15.4716789,
      "latitude": 28.1279901,
      "height": 34.0,
      "scale": {
        "x": 0.5,
        "y": 0.5,
        "z": 0.5
      },
      "tag": "BusStop",
      "localOffset": {
        "x":-2,
        "y": 35.1,
        "z": 0.0
      }
    },
    {
      "id": "parada_164",
      "nombre": "",
      "prefabName": "Pbus_stop_sign_-_low_poly",
      "longitude": -15.4733526,
      "latitude": 28.0963205,
      "height": 200.0,
      "scale": {
        "x": 0.5,
        "y": 0.5,
        "z": 0.5
      },
      "tag": "BusStop",
      "localOffset": {
        "x":-2,
        "y": 35.1,
        "z": 0.0
      }
    },
    {
      "id": "parada_165",
      "nombre": "",
      "prefabName": "Pbus_stop_sign_-_low_poly",
      "longitude": -15.4737305,
      "latitude": 28.0963476,
      "height": 198.0,
      "scale": {
        "x": 0.5,
        "y": 0.5,
        "z": 0.5
      },
      "tag": "BusStop",
      "localOffset": {
        "x":-2,
        "y": 35.1,
        "z": 0.0
      }
    },
    {
      "id": "parada_166",
      "nombre": "Iglesia De Tamaraceite",
      "prefabName": "Pbus_stop_sign_-_low_poly",
      "longitude": -15.4714815,
      "latitude": 28.0961439,
      "height": 195.0,
      "scale": {
        "x": 0.5,
        "y": 0.5,
        "z": 0.5
      },
      "tag": "BusStop",
      "localOffset": {
        "x":-2,
        "y": 35.1,
        "z": 0.0
      }
    },
    {
      "id": "parada_167",
      "nombre": "Carretera de Tamaraceite (rotonda Lomo Los Frailes)",
      "prefabName": "Pbus_stop_sign_-_low_poly",
      "longitude": -15.4669645,
      "latitude": 28.0968224,
      "height": 172.0,
      "scale": {
        "x": 0.5,
        "y": 0.5,
        "z": 0.5
      },
      "tag": "BusStop",
      "localOffset": {
        "x":-2,
        "y": 35.1,
        "z": 0.0
      }
    },
    {
      "id": "parada_168",
      "nombre": "César Manrique, 3",
      "prefabName": "Pbus_stop_sign_-_low_poly",
      "longitude": -15.4684997,
      "latitude": 28.0978282,
      "height": 185.0,
      "scale": {
        "x": 0.5,
        "y": 0.5,
        "z": 0.5
      },
      "tag": "BusStop",
      "localOffset": {
        "x":-2,
        "y": 35.1,
        "z": 0.0
      }
    },
    {
      "id": "parada_169",
      "nombre": "César Manrique, 12",
      "prefabName": "Pbus_stop_sign_-_low_poly",
      "longitude": -15.4683613,
      "latitude": 28.0979775,
      "height": 187.0,
      "scale": {
        "x": 0.5,
        "y": 0.5,
        "z": 0.5
      },
      "tag": "BusStop",
      "localOffset": {
        "x":-2,
        "y": 35.1,
        "z": 0.0
      }
    },
    {
      "id": "parada_170",
      "nombre": "Ctra. de Tamaraceite, 171",
      "prefabName": "Pbus_stop_sign_-_low_poly",
      "longitude": -15.4750047,
      "latitude": 28.0980182,
      "height": 211.0,
      "scale": {
        "x": 0.5,
        "y": 0.5,
        "z": 0.5
      },
      "tag": "BusStop",
      "localOffset": {
        "x":-2,
        "y": 35.1,
        "z": 0.0
      }
    },
    {
      "id": "parada_171",
      "nombre": "Ctra. Gral. Tamaraceite, 172",
      "prefabName": "Pbus_stop_sign_-_low_poly",
      "longitude": -15.4750772,
      "latitude": 28.0982042,
      "height": 212.0,
      "scale": {
        "x": 0.5,
        "y": 0.5,
        "z": 0.5
      },
      "tag": "BusStop",
      "localOffset": {
        "x":-2,
        "y": 35.1,
        "z": 0.0
      }
    },
    {
      "id": "parada_172",
      "nombre": "Cruz del Ovejero, 25",
      "prefabName": "Pbus_stop_sign_-_low_poly",
      "longitude": -15.4771356,
      "latitude": 28.0984755,
      "height": 216.0,
      "scale": {
        "x": 0.5,
        "y": 0.5,
        "z": 0.5
      },
      "tag": "BusStop",
      "localOffset": {
        "x":-2,
        "y": 35.1,
        "z": 0.0
      }
    },
    {
      "id": "parada_173",
      "nombre": "Cruz del Ovejero, 28",
      "prefabName": "Pbus_stop_sign_-_low_poly",
      "longitude": -15.4773795,
      "latitude": 28.0985182,
      "height": 217.0,
      "scale": {
        "x": 0.5,
        "y": 0.5,
        "z": 0.5
      },
      "tag": "BusStop",
      "localOffset": {
        "x":-2,
        "y": 35.1,
        "z": 0.0
      }
    },
    {
      "id": "parada_174",
      "nombre": "",
      "prefabName": "Pbus_stop_sign_-_low_poly",
      "longitude": -15.4754397,
      "latitude": 28.0989464,
      "height": 213.0,
      "scale": {
        "x": 0.5,
        "y": 0.5,
        "z": 0.5
      },
      "tag": "BusStop",
      "localOffset": {
        "x":-2,
        "y": 35.1,
        "z": 0.0
      }
    },
    {
      "id": "parada_175",
      "nombre": "Gasolinera",
      "prefabName": "Pbus_stop_sign_-_low_poly",
      "longitude": -15.4707779,
      "latitude": 28.0996092,
      "height": 206.0,
      "scale": {
        "x": 0.5,
        "y": 0.5,
        "z": 0.5
      },
      "tag": "BusStop",
      "localOffset": {
        "x":-2,
        "y": 35.1,
        "z": 0.0
      }
    },
    {
      "id": "parada_176",
      "nombre": "Pepe Dámaso, 43",
      "prefabName": "Pbus_stop_sign_-_low_poly",
      "longitude": -15.4776529,
      "latitude": 28.0996539,
      "height": 210.0,
      "scale": {
        "x": 0.5,
        "y": 0.5,
        "z": 0.5
      },
      "tag": "BusStop",
      "localOffset": {
        "x":-2,
        "y": 35.1,
        "z": 0.0
      }
    },
    {
      "id": "parada_177",
      "nombre": "Pepe Dámaso, 32",
      "prefabName": "Pbus_stop_sign_-_low_poly",
      "longitude": -15.477854,
      "latitude": 28.0997991,
      "height": 209.0,
      "scale": {
        "x": 0.5,
        "y": 0.5,
        "z": 0.5
      },
      "tag": "BusStop",
      "localOffset": {
        "x":-2,
        "y": 35.1,
        "z": 0.0
      }
    },
    {
      "id": "parada_178",
      "nombre": "César Manrique, frente 102",
      "prefabName": "Pbus_stop_sign_-_low_poly",
      "longitude": -15.4711887,
      "latitude": 28.0999232,
      "height": 204.0,
      "scale": {
        "x": 0.5,
        "y": 0.5,
        "z": 0.5
      },
      "tag": "BusStop",
      "localOffset": {
        "x":-2,
        "y": 35.1,
        "z": 0.0
      }
    },
    {
      "id": "parada_179",
      "nombre": "Pepe Dámaso, 17",
      "prefabName": "Pbus_stop_sign_-_low_poly",
      "longitude": -15.4743698,
      "latitude": 28.1004193,
      "height": 204.0,
      "scale": {
        "x": 0.5,
        "y": 0.5,
        "z": 0.5
      },
      "tag": "BusStop",
      "localOffset": {
        "x":-2,
        "y": 35.1,
        "z": 0.0
      }
    },
    {
      "id": "parada_180",
      "nombre": "Pepe Dámaso, 12",
      "prefabName": "Pbus_stop_sign_-_low_poly",
      "longitude": -15.4744181,
      "latitude": 28.1006092,
      "height": 204.0,
      "scale": {
        "x": 0.5,
        "y": 0.5,
        "z": 0.5
      },
      "tag": "BusStop",
      "localOffset": {
        "x":-2,
        "y": 35.1,
        "z": 0.0
      }
    },
    {
      "id": "parada_181",
      "nombre": "Ctra. Tamaraceite (Las Perreras)",
      "prefabName": "Pbus_stop_sign_-_low_poly",
      "longitude": -15.4617988,
      "latitude": 28.097813,
      "height": 192.0,
      "scale": {
        "x": 0.5,
        "y": 0.5,
        "z": 0.5
      },
      "tag": "BusStop",
      "localOffset": {
        "x":-2,
        "y": 35.1,
        "z": 0.0
      }
    },
    {
      "id": "parada_182",
      "nombre": "Ctra. de Tamaraceite, frente 71",
      "prefabName": "Pbus_stop_sign_-_low_poly",
      "longitude": -15.4619987,
      "latitude": 28.0982239,
      "height": 187.0,
      "scale": {
        "x": 0.5,
        "y": 0.5,
        "z": 0.5
      },
      "tag": "BusStop",
      "localOffset": {
        "x":-2,
        "y": 35.1,
        "z": 0.0
      }
    },
    {
      "id": "parada_183",
      "nombre": "Ctra. Tamaraceite, frente 62",
      "prefabName": "Pbus_stop_sign_-_low_poly",
      "longitude": -15.4622228,
      "latitude": 28.1030105,
      "height": 195.0,
      "scale": {
        "x": 0.5,
        "y": 0.5,
        "z": 0.5
      },
      "tag": "BusStop",
      "localOffset": {
        "x":-2,
        "y": 35.1,
        "z": 0.0
      }
    },
    {
      "id": "parada_184",
      "nombre": "Ctra. de Tamaraceite (Las Perreras)",
      "prefabName": "Pbus_stop_sign_-_low_poly",
      "longitude": -15.4620558,
      "latitude": 28.103402,
      "height": 194.0,
      "scale": {
        "x": 0.5,
        "y": 0.5,
        "z": 0.5
      },
      "tag": "BusStop",
      "localOffset": {
        "x":-2,
        "y": 35.1,
        "z": 0.0
      }
    },
    {
      "id": "parada_185",
      "nombre": "Ctra. de Tamaraceite, frente 21",
      "prefabName": "Pbus_stop_sign_-_low_poly",
      "longitude": -15.4605949,
      "latitude": 28.1066265,
      "height": 190.0,
      "scale": {
        "x": 0.5,
        "y": 0.5,
        "z": 0.5
      },
      "tag": "BusStop",
      "localOffset": {
        "x":-2,
        "y": 35.1,
        "z": 0.0
      }
    },
    {
      "id": "parada_186",
      "nombre": "Ctra. de Tamaraceite (Las Majadillas)",
      "prefabName": "Pbus_stop_sign_-_low_poly",
      "longitude": -15.4600369,
      "latitude": 28.1071691,
      "height": 193.0,
      "scale": {
        "x": 0.5,
        "y": 0.5,
        "z": 0.5
      },
      "tag": "BusStop",
      "localOffset": {
        "x":-2,
        "y": 35.1,
        "z": 0.0
      }
    },
    {
      "id": "parada_187",
      "nombre": "Dña. Juana Marrero, frente 11",
      "prefabName": "Pbus_stop_sign_-_low_poly",
      "longitude": -15.4615242,
      "latitude": 28.1076012,
      "height": 183.0,
      "scale": {
        "x": 0.5,
        "y": 0.5,
        "z": 0.5
      },
      "tag": "BusStop",
      "localOffset": {
        "x":-2,
        "y": 35.1,
        "z": 0.0
      }
    },
    {
      "id": "parada_188",
      "nombre": "Dña. Juana Marrero, 11",
      "prefabName": "Pbus_stop_sign_-_low_poly",
      "longitude": -15.4619925,
      "latitude": 28.1076366,
      "height": 178.0,
      "scale": {
        "x": 0.5,
        "y": 0.5,
        "z": 0.5
      },
      "tag": "BusStop",
      "localOffset": {
        "x":-2,
        "y": 35.1,
        "z": 0.0
      }
    },
    {
      "id": "parada_189",
      "nombre": "Residencial Flor Sirera",
      "prefabName": "Pbus_stop_sign_-_low_poly",
      "longitude": -15.4649679,
      "latitude": 28.1084858,
      "height": 162.0,
      "scale": {
        "x": 0.5,
        "y": 0.5,
        "z": 0.5
      },
      "tag": "BusStop",
      "localOffset": {
        "x":-2,
        "y": 35.1,
        "z": 0.0
      }
    },
    {
      "id": "parada_190",
      "nombre": "Ctra. Tamaraceite (Danone)",
      "prefabName": "Pbus_stop_sign_-_low_poly",
      "longitude": -15.458376,
      "latitude": 28.1100099,
      "height": 183.0,
      "scale": {
        "x": 0.5,
        "y": 0.5,
        "z": 0.5
      },
      "tag": "BusStop",
      "localOffset": {
        "x":-2,
        "y": 35.1,
        "z": 0.0
      }
    },
    {
      "id": "parada_191",
      "nombre": "Ctra. de Tamaraceite (urb. ind. Lomo Blanco)",
      "prefabName": "Pbus_stop_sign_-_low_poly",
      "longitude": -15.4584771,
      "latitude": 28.110037,
      "height": 183.0,
      "scale": {
        "x": 0.5,
        "y": 0.5,
        "z": 0.5
      },
      "tag": "BusStop",
      "localOffset": {
        "x":-2,
        "y": 35.1,
        "z": 0.0
      }
    },
    {
      "id": "parada_192",
      "nombre": "Ctra. del Cardón (cruce Las Torres)",
      "prefabName": "Pbus_stop_sign_-_low_poly",
      "longitude": -15.4553773,
      "latitude": 28.1154025,
      "height": 151.0,
      "scale": {
        "x": 0.5,
        "y": 0.5,
        "z": 0.5
      },
      "tag": "BusStop",
      "localOffset": {
        "x":-2,
        "y": 35.1,
        "z": 0.0
      }
    },
    {
      "id": "parada_193",
      "nombre": "Carretera El Cardón (Cruce de Las Torres)",
      "prefabName": "Pbus_stop_sign_-_low_poly",
      "longitude": -15.4552389,
      "latitude": 28.1155245,
      "height": 154.0,
      "scale": {
        "x": 0.5,
        "y": 0.5,
        "z": 0.5
      },
      "tag": "BusStop",
      "localOffset": {
        "x":-2,
        "y": 35.1,
        "z": 0.0
      }
    },
    {
      "id": "parada_194",
      "nombre": "Camino Viejo El Cardón, frente 74",
      "prefabName": "Pbus_stop_sign_-_low_poly",
      "longitude": -15.4548654,
      "latitude": 28.115852,
      "height": 156.0,
      "scale": {
        "x": 0.5,
        "y": 0.5,
        "z": 0.5
      },
      "tag": "BusStop",
      "localOffset": {
        "x":-2,
        "y": 35.1,
        "z": 0.0
      }
    },
    {
      "id": "parada_195",
      "nombre": "Ctra. del Cardón (urb. Díaz Casanovas)",
      "prefabName": "Pbus_stop_sign_-_low_poly",
      "longitude": -15.4543118,
      "latitude": 28.1175397,
      "height": 160.0,
      "scale": {
        "x": 0.5,
        "y": 0.5,
        "z": 0.5
      },
      "tag": "BusStop",
      "localOffset": {
        "x":-2,
        "y": 35.1,
        "z": 0.0
      }
    },
    {
      "id": "parada_196",
      "nombre": "Ctra. del Cardón (rotonda)",
      "prefabName": "Pbus_stop_sign_-_low_poly",
      "longitude": -15.4532815,
      "latitude": 28.1183864,
      "height": 156.0,
      "scale": {
        "x": 0.5,
        "y": 0.5,
        "z": 0.5
      },
      "tag": "BusStop",
      "localOffset": {
        "x":-2,
        "y": 35.1,
        "z": 0.0
      }
    },
    {
      "id": "parada_197",
      "nombre": "Camino Viejo El Cardón, 1",
      "prefabName": "Pbus_stop_sign_-_low_poly",
      "longitude": -15.4480358,
      "latitude": 28.1194233,
      "height": 97.0,
      "scale": {
        "x": 0.5,
        "y": 0.5,
        "z": 0.5
      },
      "tag": "BusStop",
      "localOffset": {
        "x":-2,
        "y": 35.1,
        "z": 0.0
      }
    },
    {
      "id": "parada_198",
      "nombre": "Ctra. del Cardón, frente 118",
      "prefabName": "Pbus_stop_sign_-_low_poly",
      "longitude": -15.4481017,
      "latitude": 28.1195919,
      "height": 100.0,
      "scale": {
        "x": 0.5,
        "y": 0.5,
        "z": 0.5
      },
      "tag": "BusStop",
      "localOffset": {
        "x":-2,
        "y": 35.1,
        "z": 0.0
      }
    },
    {
      "id": "parada_199",
      "nombre": "Ctra. de Chile, frente 91",
      "prefabName": "Pbus_stop_sign_-_low_poly",
      "longitude": -15.4479268,
      "latitude": 28.1206044,
      "height": 93.0,
      "scale": {
        "x": 0.5,
        "y": 0.5,
        "z": 0.5
      },
      "tag": "BusStop",
      "localOffset": {
        "x":-2,
        "y": 35.1,
        "z": 0.0
      }
    },
    {
      "id": "parada_200",
      "nombre": "Ctra. de Chile, 45",
      "prefabName": "Pbus_stop_sign_-_low_poly",
      "longitude": -15.4467428,
      "latitude": 28.1234004,
      "height": 71.0,
      "scale": {
        "x": 0.5,
        "y": 0.5,
        "z": 0.5
      },
      "tag": "BusStop",
      "localOffset": {
        "x":-2,
        "y": 35.1,
        "z": 0.0
      }
    },
    {
      "id": "parada_201",
      "nombre": "Ctra. de Chile, 68",
      "prefabName": "Pbus_stop_sign_-_low_poly",
      "longitude": -15.44683,
      "latitude": 28.1232151,
      "height": 69.0,
      "scale": {
        "x": 0.5,
        "y": 0.5,
        "z": 0.5
      },
      "tag": "BusStop",
      "localOffset": {
        "x":-2,
        "y": 35.1,
        "z": 0.0
      }
    },
    {
      "id": "parada_202",
      "nombre": "Ctra. de Chile (campo de golf)",
      "prefabName": "Pbus_stop_sign_-_low_poly",
      "longitude": -15.4460861,
      "latitude": 28.1254996,
      "height": 58.0,
      "scale": {
        "x": 0.5,
        "y": 0.5,
        "z": 0.5
      },
      "tag": "BusStop",
      "localOffset": {
        "x":-2,
        "y": 35.1,
        "z": 0.0
      }
    },
    {
      "id": "parada_203",
      "nombre": "Ctra. de Chile (campo de golf)",
      "prefabName": "Pbus_stop_sign_-_low_poly",
      "longitude": -15.4453314,
      "latitude": 28.1260748,
      "height": 48.0,
      "scale": {
        "x": 0.5,
        "y": 0.5,
        "z": 0.5
      },
      "tag": "BusStop",
      "localOffset": {
        "x":-2,
        "y": 35.1,
        "z": 0.0
      }
    },
    {
      "id": "parada_204",
      "nombre": "Pintor Felo Monzón (Hipercor)",
      "prefabName": "Pbus_stop_sign_-_low_poly",
      "longitude": -15.4562411,
      "latitude": 28.09523,
      "height": 237.0,
      "scale": {
        "x": 0.5,
        "y": 0.5,
        "z": 0.5
      },
      "tag": "BusStop",
      "localOffset": {
        "x":-2,
        "y": 35.1,
        "z": 0.0
      }
    },
    {
      "id": "parada_205",
      "nombre": "Pintor Felo Monzón (frente Hipercor)",
      "prefabName": "Pbus_stop_sign_-_low_poly",
      "longitude": -15.4557688,
      "latitude": 28.0954045,
      "height": 235.0,
      "scale": {
        "x": 0.5,
        "y": 0.5,
        "z": 0.5
      },
      "tag": "BusStop",
      "localOffset": {
        "x":-2,
        "y": 35.1,
        "z": 0.0
      }
    },
    {
      "id": "parada_206",
      "nombre": "Pintor Felo Monzón (Hoya de La Gallina)",
      "prefabName": "Pbus_stop_sign_-_low_poly",
      "longitude": -15.4560989,
      "latitude": 28.0955281,
      "height": 236.0,
      "scale": {
        "x": 0.5,
        "y": 0.5,
        "z": 0.5
      },
      "tag": "BusStop",
      "localOffset": {
        "x":-2,
        "y": 35.1,
        "z": 0.0
      }
    },
    {
      "id": "parada_207",
      "nombre": "Cementerio San Lázaro",
      "prefabName": "Pbus_stop_sign_-_low_poly",
      "longitude": -15.4592681,
      "latitude": 28.0994228,
      "height": 224.0,
      "scale": {
        "x": 0.5,
        "y": 0.5,
        "z": 0.5
      },
      "tag": "BusStop",
      "localOffset": {
        "x":-2,
        "y": 35.1,
        "z": 0.0
      }
    },
    {
      "id": "parada_208",
      "nombre": "Junco (Amapola)",
      "prefabName": "Pbus_stop_sign_-_low_poly",
      "longitude": -15.4540772,
      "latitude": 28.1103939,
      "height": 173.0,
      "scale": {
        "x": 0.5,
        "y": 0.5,
        "z": 0.5
      },
      "tag": "BusStop",
      "localOffset": {
        "x":-2,
        "y": 35.1,
        "z": 0.0
      }
    },
    {
      "id": "parada_209",
      "nombre": "Hoya de la Gallina (Cementerio de San Lázaro)",
      "prefabName": "Pbus_stop_sign_-_low_poly",
      "longitude": -15.45822,
      "latitude": 28.0974343,
      "height": 222.0,
      "scale": {
        "x": 0.5,
        "y": 0.5,
        "z": 0.5
      },
      "tag": "BusStop",
      "localOffset": {
        "x":-2,
        "y": 35.1,
        "z": 0.0
      }
    },
    {
      "id": "parada_210",
      "nombre": "Pintor Felo Monzón, 37",
      "prefabName": "Pbus_stop_sign_-_low_poly",
      "longitude": -15.4545669,
      "latitude": 28.0980977,
      "height": 223.0,
      "scale": {
        "x": 0.5,
        "y": 0.5,
        "z": 0.5
      },
      "tag": "BusStop",
      "localOffset": {
        "x":-2,
        "y": 35.1,
        "z": 0.0
      }
    },
    {
      "id": "parada_211",
      "nombre": "Pintor Felo Monzón, 38",
      "prefabName": "Pbus_stop_sign_-_low_poly",
      "longitude": -15.4537735,
      "latitude": 28.1007986,
      "height": 216.0,
      "scale": {
        "x": 0.5,
        "y": 0.5,
        "z": 0.5
      },
      "tag": "BusStop",
      "localOffset": {
        "x":-2,
        "y": 35.1,
        "z": 0.0
      }
    },
    {
      "id": "parada_212",
      "nombre": "Pintor Felo Monzón, 29",
      "prefabName": "Pbus_stop_sign_-_low_poly",
      "longitude": -15.4533803,
      "latitude": 28.1008276,
      "height": 214.0,
      "scale": {
        "x": 0.5,
        "y": 0.5,
        "z": 0.5
      },
      "tag": "BusStop",
      "localOffset": {
        "x":-2,
        "y": 35.1,
        "z": 0.0
      }
    },
    {
      "id": "parada_213",
      "nombre": "Pintor Felo Monzón, 25",
      "prefabName": "Pbus_stop_sign_-_low_poly",
      "longitude": -15.4527959,
      "latitude": 28.1029322,
      "height": 210.0,
      "scale": {
        "x": 0.5,
        "y": 0.5,
        "z": 0.5
      },
      "tag": "BusStop",
      "localOffset": {
        "x":-2,
        "y": 35.1,
        "z": 0.0
      }
    },
    {
      "id": "parada_214",
      "nombre": "Pintor Felo Monzón, 28",
      "prefabName": "Pbus_stop_sign_-_low_poly",
      "longitude": -15.4527805,
      "latitude": 28.1045018,
      "height": 204.0,
      "scale": {
        "x": 0.5,
        "y": 0.5,
        "z": 0.5
      },
      "tag": "BusStop",
      "localOffset": {
        "x":-2,
        "y": 35.1,
        "z": 0.0
      }
    },
    {
      "id": "parada_215",
      "nombre": "Pintor Felo Monzón, 17",
      "prefabName": "Pbus_stop_sign_-_low_poly",
      "longitude": -15.4519589,
      "latitude": 28.1063505,
      "height": 191.0,
      "scale": {
        "x": 0.5,
        "y": 0.5,
        "z": 0.5
      },
      "tag": "BusStop",
      "localOffset": {
        "x":-2,
        "y": 35.1,
        "z": 0.0
      }
    },
    {
      "id": "parada_216",
      "nombre": "Pintor Felo Monzón, 22",
      "prefabName": "Pbus_stop_sign_-_low_poly",
      "longitude": -15.4523141,
      "latitude": 28.106401,
      "height": 192.0,
      "scale": {
        "x": 0.5,
        "y": 0.5,
        "z": 0.5
      },
      "tag": "BusStop",
      "localOffset": {
        "x":-2,
        "y": 35.1,
        "z": 0.0
      }
    },
    {
      "id": "parada_217",
      "nombre": "Pintor Felo Monzón, 1",
      "prefabName": "Pbus_stop_sign_-_low_poly",
      "longitude": -15.4506894,
      "latitude": 28.1112038,
      "height": 169.0,
      "scale": {
        "x": 0.5,
        "y": 0.5,
        "z": 0.5
      },
      "tag": "BusStop",
      "localOffset": {
        "x":-2,
        "y": 35.1,
        "z": 0.0
      }
    },
    {
      "id": "parada_218",
      "nombre": "Pintor Felo Monzón, 2",
      "prefabName": "Pbus_stop_sign_-_low_poly",
      "longitude": -15.4509483,
      "latitude": 28.1117239,
      "height": 172.0,
      "scale": {
        "x": 0.5,
        "y": 0.5,
        "z": 0.5
      },
      "tag": "BusStop",
      "localOffset": {
        "x":-2,
        "y": 35.1,
        "z": 0.0
      }
    },
    {
      "id": "parada_219",
      "nombre": "Archivero Joaquín Blanco Montesdeoca (Pedro Barber)",
      "prefabName": "Pbus_stop_sign_-_low_poly",
      "longitude": -15.4515747,
      "latitude": 28.1126245,
      "height": 172.0,
      "scale": {
        "x": 0.5,
        "y": 0.5,
        "z": 0.5
      },
      "tag": "BusStop",
      "localOffset": {
        "x":-2,
        "y": 35.1,
        "z": 0.0
      }
    },
    {
      "id": "parada_220",
      "nombre": "Mimosa",
      "prefabName": "Pbus_stop_sign_-_low_poly",
      "longitude": -15.4524356,
      "latitude": 28.1127432,
      "height": 171.0,
      "scale": {
        "x": 0.5,
        "y": 0.5,
        "z": 0.5
      },
      "tag": "BusStop",
      "localOffset": {
        "x":-2,
        "y": 35.1,
        "z": 0.0
      }
    },
    {
      "id": "parada_221",
      "nombre": "Colegio Arenas",
      "prefabName": "Pbus_stop_sign_-_low_poly",
      "longitude": -15.4544831,
      "latitude": 28.092316,
      "height": 238.0,
      "scale": {
        "x": 0.5,
        "y": 0.5,
        "z": 0.5
      },
      "tag": "BusStop",
      "localOffset": {
        "x":-2,
        "y": 35.1,
        "z": 0.0
      }
    },
    {
      "id": "parada_222",
      "nombre": "Colegio Arenas",
      "prefabName": "Pbus_stop_sign_-_low_poly",
      "longitude": -15.4549115,
      "latitude": 28.0931242,
      "height": 232.0,
      "scale": {
        "x": 0.5,
        "y": 0.5,
        "z": 0.5
      },
      "tag": "BusStop",
      "localOffset": {
        "x":-2,
        "y": 35.1,
        "z": 0.0
      }
    },
    {
      "id": "parada_223",
      "nombre": "Las Borreras, 1",
      "prefabName": "Pbus_stop_sign_-_low_poly",
      "longitude": -15.4501871,
      "latitude": 28.1065753,
      "height": 178.0,
      "scale": {
        "x": 0.5,
        "y": 0.5,
        "z": 0.5
      },
      "tag": "BusStop",
      "localOffset": {
        "x":-2,
        "y": 35.1,
        "z": 0.0
      }
    },
    {
      "id": "parada_224",
      "nombre": "Las Borreras, frente 1",
      "prefabName": "Pbus_stop_sign_-_low_poly",
      "longitude": -15.4502047,
      "latitude": 28.106678,
      "height": 178.0,
      "scale": {
        "x": 0.5,
        "y": 0.5,
        "z": 0.5
      },
      "tag": "BusStop",
      "localOffset": {
        "x":-2,
        "y": 35.1,
        "z": 0.0
      }
    },
    {
      "id": "parada_225",
      "nombre": "Juan Carlos I, 50",
      "prefabName": "Pbus_stop_sign_-_low_poly",
      "longitude": -15.4500927,
      "latitude": 28.113214,
      "height": 167.0,
      "scale": {
        "x": 0.5,
        "y": 0.5,
        "z": 0.5
      },
      "tag": "BusStop",
      "localOffset": {
        "x":-2,
        "y": 35.1,
        "z": 0.0
      }
    },
    {
      "id": "parada_226",
      "nombre": "Juan Carlos (Centro Comercial Las Ramblas)",
      "prefabName": "Pbus_stop_sign_-_low_poly",
      "longitude": -15.4492799,
      "latitude": 28.1137808,
      "height": 160.0,
      "scale": {
        "x": 0.5,
        "y": 0.5,
        "z": 0.5
      },
      "tag": "BusStop",
      "localOffset": {
        "x":-2,
        "y": 35.1,
        "z": 0.0
      }
    },
    {
      "id": "parada_227",
      "nombre": "Mimosa (Gardenia)",
      "prefabName": "Pbus_stop_sign_-_low_poly",
      "longitude": -15.4504404,
      "latitude": 28.1151122,
      "height": 162.0,
      "scale": {
        "x": 0.5,
        "y": 0.5,
        "z": 0.5
      },
      "tag": "BusStop",
      "localOffset": {
        "x":-2,
        "y": 35.1,
        "z": 0.0
      }
    },
    {
      "id": "parada_228",
      "nombre": "Juan Carlos I, 23",
      "prefabName": "Pbus_stop_sign_-_low_poly",
      "longitude": -15.4478738,
      "latitude": 28.1153648,
      "height": 146.0,
      "scale": {
        "x": 0.5,
        "y": 0.5,
        "z": 0.5
      },
      "tag": "BusStop",
      "localOffset": {
        "x":-2,
        "y": 35.1,
        "z": 0.0
      }
    },
    {
      "id": "parada_229",
      "nombre": "Juan Carlos I, 20",
      "prefabName": "Pbus_stop_sign_-_low_poly",
      "longitude": -15.4481682,
      "latitude": 28.1155063,
      "height": 147.0,
      "scale": {
        "x": 0.5,
        "y": 0.5,
        "z": 0.5
      },
      "tag": "BusStop",
      "localOffset": {
        "x":-2,
        "y": 35.1,
        "z": 0.0
      }
    },
    {
      "id": "parada_230",
      "nombre": "Juan Carlos I, 9",
      "prefabName": "Pbus_stop_sign_-_low_poly",
      "longitude": -15.4455539,
      "latitude": 28.1174846,
      "height": 115.0,
      "scale": {
        "x": 0.5,
        "y": 0.5,
        "z": 0.5
      },
      "tag": "BusStop",
      "localOffset": {
        "x":-2,
        "y": 35.1,
        "z": 0.0
      }
    },
    {
      "id": "parada_231",
      "nombre": "Juan Carlos I, 10",
      "prefabName": "Pbus_stop_sign_-_low_poly",
      "longitude": -15.4457655,
      "latitude": 28.1176826,
      "height": 112.0,
      "scale": {
        "x": 0.5,
        "y": 0.5,
        "z": 0.5
      },
      "tag": "BusStop",
      "localOffset": {
        "x":-2,
        "y": 35.1,
        "z": 0.0
      }
    },
    {
      "id": "parada_232",
      "nombre": "Camino Viejo El Cardón, 55",
      "prefabName": "Pbus_stop_sign_-_low_poly",
      "longitude": -15.4526586,
      "latitude": 28.1179922,
      "height": 138.0,
      "scale": {
        "x": 0.5,
        "y": 0.5,
        "z": 0.5
      },
      "tag": "BusStop",
      "localOffset": {
        "x":-2,
        "y": 35.1,
        "z": 0.0
      }
    },
    {
      "id": "parada_233",
      "nombre": "Juan Carlos I (Hospital Doctor Negrín)",
      "prefabName": "Pbus_stop_sign_-_low_poly",
      "longitude": -15.4443874,
      "latitude": 28.1189436,
      "height": 90.0,
      "scale": {
        "x": 0.5,
        "y": 0.5,
        "z": 0.5
      },
      "tag": "BusStop",
      "localOffset": {
        "x":-2,
        "y": 35.1,
        "z": 0.0
      }
    },
    {
      "id": "parada_234",
      "nombre": "Juan Carlos I (rotonda hospital Dr. Negrín)",
      "prefabName": "Pbus_stop_sign_-_low_poly",
      "longitude": -15.4429845,
      "latitude": 28.1196612,
      "height": 78.0,
      "scale": {
        "x": 0.5,
        "y": 0.5,
        "z": 0.5
      },
      "tag": "BusStop",
      "localOffset": {
        "x":-2,
        "y": 35.1,
        "z": 0.0
      }
    },
    {
      "id": "parada_235",
      "nombre": "Hospital Dr. Negrín (Hospitalización)",
      "prefabName": "Pbus_stop_sign_-_low_poly",
      "longitude": -15.4432055,
      "latitude": 28.1209412,
      "height": 77.0,
      "scale": {
        "x": 0.5,
        "y": 0.5,
        "z": 0.5
      },
      "tag": "BusStop",
      "localOffset": {
        "x":-2,
        "y": 35.1,
        "z": 0.0
      }
    },
    {
      "id": "parada_236",
      "nombre": "Manuel de Falla, frente 56",
      "prefabName": "Pbus_stop_sign_-_low_poly",
      "longitude": -15.4515852,
      "latitude": 28.0896197,
      "height": 199.0,
      "scale": {
        "x": 0.5,
        "y": 0.5,
        "z": 0.5
      },
      "tag": "BusStop",
      "localOffset": {
        "x":-2,
        "y": 35.1,
        "z": 0.0
      }
    },
    {
      "id": "parada_237",
      "nombre": "Manuel de Falla (Nueva Paterna)",
      "prefabName": "Pbus_stop_sign_-_low_poly",
      "longitude": -15.4503967,
      "latitude": 28.0900694,
      "height": 195.0,
      "scale": {
        "x": 0.5,
        "y": 0.5,
        "z": 0.5
      },
      "tag": "BusStop",
      "localOffset": {
        "x":-2,
        "y": 35.1,
        "z": 0.0
      }
    },
    {
      "id": "parada_238",
      "nombre": "Manuel de Falla, frente 52",
      "prefabName": "Pbus_stop_sign_-_low_poly",
      "longitude": -15.4506603,
      "latitude": 28.0908155,
      "height": 195.0,
      "scale": {
        "x": 0.5,
        "y": 0.5,
        "z": 0.5
      },
      "tag": "BusStop",
      "localOffset": {
        "x":-2,
        "y": 35.1,
        "z": 0.0
      }
    },
    {
      "id": "parada_239",
      "nombre": "Manuel de Falla, frente 72",
      "prefabName": "Pbus_stop_sign_-_low_poly",
      "longitude": -15.4486678,
      "latitude": 28.0920637,
      "height": 188.0,
      "scale": {
        "x": 0.5,
        "y": 0.5,
        "z": 0.5
      },
      "tag": "BusStop",
      "localOffset": {
        "x":-2,
        "y": 35.1,
        "z": 0.0
      }
    },
    {
      "id": "parada_240",
      "nombre": "Manuel de Falla (colegio La Paterna)",
      "prefabName": "Pbus_stop_sign_-_low_poly",
      "longitude": -15.4494125,
      "latitude": 28.0923195,
      "height": 190.0,
      "scale": {
        "x": 0.5,
        "y": 0.5,
        "z": 0.5
      },
      "tag": "BusStop",
      "localOffset": {
        "x":-2,
        "y": 35.1,
        "z": 0.0
      }
    },
    {
      "id": "parada_241",
      "nombre": "Manuel de Falla, frente 84",
      "prefabName": "Pbus_stop_sign_-_low_poly",
      "longitude": -15.4477231,
      "latitude": 28.0937808,
      "height": 183.0,
      "scale": {
        "x": 0.5,
        "y": 0.5,
        "z": 0.5
      },
      "tag": "BusStop",
      "localOffset": {
        "x":-2,
        "y": 35.1,
        "z": 0.0
      }
    },
    {
      "id": "parada_242",
      "nombre": "Emilio Arrieta, frente 7",
      "prefabName": "Pbus_stop_sign_-_low_poly",
      "longitude": -15.4496124,
      "latitude": 28.0943971,
      "height": 205.0,
      "scale": {
        "x": 0.5,
        "y": 0.5,
        "z": 0.5
      },
      "tag": "BusStop",
      "localOffset": {
        "x":-2,
        "y": 35.1,
        "z": 0.0
      }
    },
    {
      "id": "parada_243",
      "nombre": "Los Tarahales",
      "prefabName": "Pbus_stop_sign_-_low_poly",
      "longitude": -15.4520063,
      "latitude": 28.0947864,
      "height": 222.0,
      "scale": {
        "x": 0.5,
        "y": 0.5,
        "z": 0.5
      },
      "tag": "BusStop",
      "localOffset": {
        "x":-2,
        "y": 35.1,
        "z": 0.0
      }
    },
    {
      "id": "parada_244",
      "nombre": "Acceso Manuel de Falla",
      "prefabName": "Pbus_stop_sign_-_low_poly",
      "longitude": -15.4478989,
      "latitude": 28.0966994,
      "height": 180.0,
      "scale": {
        "x": 0.5,
        "y": 0.5,
        "z": 0.5
      },
      "tag": "BusStop",
      "localOffset": {
        "x":-2,
        "y": 35.1,
        "z": 0.0
      }
    },
    {
      "id": "parada_245",
      "nombre": "Manuel de Falla (salida de La Paterna)",
      "prefabName": "Pbus_stop_sign_-_low_poly",
      "longitude": -15.4474683,
      "latitude": 28.0968254,
      "height": 175.0,
      "scale": {
        "x": 0.5,
        "y": 0.5,
        "z": 0.5
      },
      "tag": "BusStop",
      "localOffset": {
        "x":-2,
        "y": 35.1,
        "z": 0.0
      }
    },
    {
      "id": "parada_246",
      "nombre": "Manuel de Falla, frente 118",
      "prefabName": "Pbus_stop_sign_-_low_poly",
      "longitude": -15.4465324,
      "latitude": 28.0968273,
      "height": 168.0,
      "scale": {
        "x": 0.5,
        "y": 0.5,
        "z": 0.5
      },
      "tag": "BusStop",
      "localOffset": {
        "x":-2,
        "y": 35.1,
        "z": 0.0
      }
    },
    {
      "id": "parada_247",
      "nombre": "Carretera del Norte (Los Tarahales)",
      "prefabName": "Pbus_stop_sign_-_low_poly",
      "longitude": -15.4480629,
      "latitude": 28.096996,
      "height": 185.0,
      "scale": {
        "x": 0.5,
        "y": 0.5,
        "z": 0.5
      },
      "tag": "BusStop",
      "localOffset": {
        "x":-2,
        "y": 35.1,
        "z": 0.0
      }
    },
    {
      "id": "parada_248",
      "nombre": "Ctra. del Norte, 234",
      "prefabName": "Pbus_stop_sign_-_low_poly",
      "longitude": -15.4485755,
      "latitude": 28.0975947,
      "height": 200.0,
      "scale": {
        "x": 0.5,
        "y": 0.5,
        "z": 0.5
      },
      "tag": "BusStop",
      "localOffset": {
        "x":-2,
        "y": 35.1,
        "z": 0.0
      }
    },
    {
      "id": "parada_249",
      "nombre": "Ctra. del Norte, 225",
      "prefabName": "Pbus_stop_sign_-_low_poly",
      "longitude": -15.4486582,
      "latitude": 28.0977892,
      "height": 202.0,
      "scale": {
        "x": 0.5,
        "y": 0.5,
        "z": 0.5
      },